<?xml version="1.0" encoding="UTF-8" ?>
<gpx version="1.1" xmlns:xsi="http://www.w3.org/2001/XMLSchema-instance">
	<wpt lat="70.56" lon="-8.40">
		<name>01001 - JAN MAYEN</name>
	</wpt>
	<wpt lat="78.15" lon="15.28">
		<name>01008 - SVALBARD</name>
	</wpt>
	<wpt lat="69.41" lon="18.55">
		<name>01025 - TROMSOE</name>
	</wpt>
	<wpt lat="74.31" lon="19.01">
		<name>01028 - BJORNOYA</name>
	</wpt>
	<wpt lat="69.59" lon="23.22">
		<name>01049 - ALTA LUFTHAVN</name>
	</wpt>
	<wpt lat="70.40" lon="23.40">
		<name>01052 - HAMMERFEST</name>
	</wpt>
	<wpt lat="70.04" lon="24.59">
		<name>01059 - BANAK/LAKSELV</name>
	</wpt>
	<wpt lat="69.44" lon="29.54">
		<name>01089 - KIRKENES</name>
	</wpt>
	<wpt lat="70.43" lon="30.04">
		<name>01092 - MAKKAUR FYR</name>
	</wpt>
	<wpt lat="65.27" lon="12.13">
		<name>01112 - BRONNOYSUND/B</name>
	</wpt>
	<wpt lat="66.20" lon="14.06">
		<name>01149 - BASMOEN</name>
	</wpt>
	<wpt lat="67.16" lon="14.22">
		<name>01152 - BODOE</name>
	</wpt>
	<wpt lat="68.48" lon="16.32">
		<name>01180 - HARSTAD</name>
	</wpt>
	<wpt lat="68.28" lon="17.30">
		<name>01194 - NARVIK</name>
	</wpt>
	<wpt lat="62.34" lon="6.07">
		<name>01210 - ALESUND AIRP</name>
	</wpt>
	<wpt lat="62.37" lon="7.14">
		<name>01215 - HJELVIG (MYRB</name>
	</wpt>
	<wpt lat="63.07" lon="7.50">
		<name>01223 - KRISTIANSUND</name>
	</wpt>
	<wpt lat="62.07" lon="9.17">
		<name>01238 - FOKSTUA 2</name>
	</wpt>
	<wpt lat="63.42" lon="9.36">
		<name>01241 - ORLAND</name>
	</wpt>
	<wpt lat="63.28" lon="10.55">
		<name>01271 - TRONDHEIM</name>
	</wpt>
	<wpt lat="64.28" lon="11.35">
		<name>01290 - NAMSOS</name>
	</wpt>
	<wpt lat="60.18" lon="5.13">
		<name>01311 - BERGEN</name>
	</wpt>
	<wpt lat="61.10" lon="6.39">
		<name>01338 - VANGSNES</name>
	</wpt>
	<wpt lat="61.09" lon="7.08">
		<name>01347 - SOGNDAL</name>
	</wpt>
	<wpt lat="61.34" lon="8.00">
		<name>01366 - SOGNEFJELL</name>
	</wpt>
	<wpt lat="61.00" lon="9.18">
		<name>01368 - FAGERNES</name>
	</wpt>
	<wpt lat="61.39" lon="10.07">
		<name>01380 - VENABU</name>
	</wpt>
	<wpt lat="60.12" lon="11.06">
		<name>01384 - OSLO/GARDERMO</name>
	</wpt>
	<wpt lat="60.49" lon="11.04">
		<name>01385 - HAMAR-STAVSBE</name>
	</wpt>
	<wpt lat="59.19" lon="4.52">
		<name>01403 - UTSIRA FYR</name>
	</wpt>
	<wpt lat="58.53" lon="5.38">
		<name>01415 - STAVANGER</name>
	</wpt>
	<wpt lat="58.12" lon="8.05">
		<name>01452 - KRISTIANSAND</name>
	</wpt>
	<wpt lat="59.11" lon="9.34">
		<name>01475 - SKIEN</name>
	</wpt>
	<wpt lat="59.14" lon="10.21">
		<name>01481 - MELSOM</name>
	</wpt>
	<wpt lat="59.54" lon="10.37">
		<name>01488 - OSLO/FORNEBU</name>
	</wpt>
	<wpt lat="59.56" lon="10.43">
		<name>01492 - OSLO-BLINDERN</name>
	</wpt>
	<wpt lat="59.17" lon="11.07">
		<name>01493 - SARPSBORG</name>
	</wpt>
	<wpt lat="59.23" lon="10.47">
		<name>01494 - RYGGE</name>
	</wpt>
	<wpt lat="67.09" lon="20.39">
		<name>02049 - GALLIVARE APT</name>
	</wpt>
	<wpt lat="67.46" lon="22.21">
		<name>02086 - LAINIO</name>
	</wpt>
	<wpt lat="67.12" lon="23.23">
		<name>02096 - PAJALA</name>
	</wpt>
	<wpt lat="66.57" lon="17.44">
		<name>02120 - KVIKKJOKK</name>
	</wpt>
	<wpt lat="64.58" lon="17.42">
		<name>02128 - GUNNARN</name>
	</wpt>
	<wpt lat="65.33" lon="22.08">
		<name>02186 - LULEA</name>
	</wpt>
	<wpt lat="65.50" lon="24.09">
		<name>02196 - HAPARANDA</name>
	</wpt>
	<wpt lat="63.12" lon="14.30">
		<name>02226 - FROSON</name>
	</wpt>
	<wpt lat="63.18" lon="18.41">
		<name>02267 - ORNSKOLDSVIK</name>
	</wpt>
	<wpt lat="63.26" lon="19.41">
		<name>02284 - JAERNAESKLUBB</name>
	</wpt>
	<wpt lat="63.48" lon="20.17">
		<name>02286 - UMEA</name>
	</wpt>
	<wpt lat="64.38" lon="21.05">
		<name>02293 - SKELLEFTEHAMN</name>
	</wpt>
	<wpt lat="62.02" lon="14.22">
		<name>02324 - SVEG</name>
	</wpt>
	<wpt lat="61.42" lon="17.31">
		<name>02355 - KUGGOEREN AMO</name>
	</wpt>
	<wpt lat="62.31" lon="17.27">
		<name>02366 - TIMRA/MIDLAND</name>
	</wpt>
	<wpt lat="61.16" lon="17.06">
		<name>02378 - SODERHAMN</name>
	</wpt>
	<wpt lat="59.40" lon="12.35">
		<name>02404 - ARVIKA</name>
	</wpt>
	<wpt lat="59.22" lon="13.28">
		<name>02418 - KARLSTAD</name>
	</wpt>
	<wpt lat="60.26" lon="15.30">
		<name>02435 - BORLANGE</name>
	</wpt>
	<wpt lat="59.53" lon="17.36">
		<name>02458 - UPPSALA</name>
	</wpt>
	<wpt lat="59.39" lon="17.55">
		<name>02460 - STOCKHOLM/ARL</name>
	</wpt>
	<wpt lat="59.21" lon="17.57">
		<name>02464 - STOCKHOLM</name>
	</wpt>
	<wpt lat="59.11" lon="17.55">
		<name>02469 - TULLINGE</name>
	</wpt>
	<wpt lat="59.04" lon="16.23">
		<name>02476 - FLODA</name>
	</wpt>
	<wpt lat="59.55" lon="16.41">
		<name>02481 - SALA</name>
	</wpt>
	<wpt lat="59.50" lon="18.38">
		<name>02490 - SVANBERGA</name>
	</wpt>
	<wpt lat="59.45" lon="19.25">
		<name>02493 - SOEDERARM</name>
	</wpt>
	<wpt lat="58.53" lon="11.00">
		<name>02500 - NORDKOSTER</name>
	</wpt>
	<wpt lat="58.05" lon="11.20">
		<name>02505 - MASESKAR</name>
	</wpt>
	<wpt lat="57.47" lon="11.53">
		<name>02512 - GOETEBORG</name>
	</wpt>
	<wpt lat="57.42" lon="12.00">
		<name>02513 - GOETEBORG</name>
	</wpt>
	<wpt lat="58.26" lon="12.43">
		<name>02520 - SATENAS</name>
	</wpt>
	<wpt lat="57.40" lon="12.30">
		<name>02527 - GOTEBORG/LAND</name>
	</wpt>
	<wpt lat="58.19" lon="13.02">
		<name>02542 - HALLUM</name>
	</wpt>
	<wpt lat="57.46" lon="14.05">
		<name>02550 - JONKOPING</name>
	</wpt>
	<wpt lat="57.43" lon="16.27">
		<name>02559 - GLADHAMMAR</name>
	</wpt>
	<wpt lat="58.24" lon="15.31">
		<name>02562 - LINKOPING</name>
	</wpt>
	<wpt lat="57.24" lon="15.49">
		<name>02566 - MALILLA</name>
	</wpt>
	<wpt lat="58.35" lon="16.09">
		<name>02574 - NORRKOPING</name>
	</wpt>
	<wpt lat="58.24" lon="19.12">
		<name>02584 - GOTSKA SANDON</name>
	</wpt>
	<wpt lat="58.15" lon="17.01">
		<name>02586 - HARSTENA</name>
	</wpt>
	<wpt lat="57.40" lon="18.21">
		<name>02590 - VISBY</name>
	</wpt>
	<wpt lat="57.33" lon="18.26">
		<name>02595 - ROMA/GOTLAND</name>
	</wpt>
	<wpt lat="56.52" lon="12.40">
		<name>02603 - BROEN</name>
	</wpt>
	<wpt lat="56.41" lon="12.50">
		<name>02604 - HALMSTAD</name>
	</wpt>
	<wpt lat="56.18" lon="12.51">
		<name>02607 - ANGELHOLM</name>
	</wpt>
	<wpt lat="56.02" lon="12.46">
		<name>02611 - HELSINGBORG</name>
	</wpt>
	<wpt lat="55.23" lon="12.49">
		<name>02616 - FALSTERBO</name>
	</wpt>
	<wpt lat="56.58" lon="13.04">
		<name>02620 - TORUP</name>
	</wpt>
	<wpt lat="55.52" lon="13.40">
		<name>02623 - HORBY</name>
	</wpt>
	<wpt lat="55.29" lon="14.19">
		<name>02625 - SKILLINGE</name>
	</wpt>
	<wpt lat="56.01" lon="14.51">
		<name>02628 - HANO</name>
	</wpt>
	<wpt lat="55.34" lon="13.04">
		<name>02635 - MALMO</name>
	</wpt>
	<wpt lat="55.33" lon="13.22">
		<name>02636 - MALMO/STURUP</name>
	</wpt>
	<wpt lat="56.56" lon="14.44">
		<name>02641 - VAXJO</name>
	</wpt>
	<wpt lat="56.51" lon="14.50">
		<name>02648 - VAEXJOE</name>
	</wpt>
	<wpt lat="55.55" lon="14.05">
		<name>02651 - KRISTIANSTAD</name>
	</wpt>
	<wpt lat="56.16" lon="15.17">
		<name>02664 - RONNEBY</name>
	</wpt>
	<wpt lat="56.41" lon="16.18">
		<name>02670 - KALMAR</name>
	</wpt>
	<wpt lat="56.55" lon="18.09">
		<name>02680 - HOBURG</name>
	</wpt>
	<wpt lat="62.12" lon="21.10">
		<name>02752 - KRISTIINANKAU</name>
	</wpt>
	<wpt lat="68.37" lon="27.25">
		<name>02807 - IVALO</name>
	</wpt>
	<wpt lat="68.22" lon="23.36">
		<name>02810 - ENONTEKIO</name>
	</wpt>
	<wpt lat="67.42" lon="24.51">
		<name>02830 - KITTILA</name>
	</wpt>
	<wpt lat="67.22" lon="26.39">
		<name>02836 - SODANKYLA</name>
	</wpt>
	<wpt lat="66.30" lon="25.43">
		<name>02847 - ROVANIEMI</name>
	</wpt>
	<wpt lat="65.58" lon="29.11">
		<name>02869 - KUUSAMO</name>
	</wpt>
	<wpt lat="65.01" lon="25.23">
		<name>02876 - OULU</name>
	</wpt>
	<wpt lat="64.17" lon="27.41">
		<name>02897 - KAJAANI</name>
	</wpt>
	<wpt lat="63.03" lon="21.46">
		<name>02911 - VAASA</name>
	</wpt>
	<wpt lat="63.06" lon="21.35">
		<name>02912 - VAASA</name>
	</wpt>
	<wpt lat="63.05" lon="25.52">
		<name>02915 - VIITASAARI</name>
	</wpt>
	<wpt lat="63.01" lon="27.48">
		<name>02917 - KUOPIO</name>
	</wpt>
	<wpt lat="62.40" lon="29.38">
		<name>02929 - JOENSUU APT</name>
	</wpt>
	<wpt lat="62.24" lon="25.41">
		<name>02935 - JYVASKYLA</name>
	</wpt>
	<wpt lat="61.25" lon="23.35">
		<name>02944 - TAMPERE</name>
	</wpt>
	<wpt lat="61.44" lon="27.18">
		<name>02947 - MIKKELI</name>
	</wpt>
	<wpt lat="61.57" lon="28.57">
		<name>02948 - SAVONLINNA</name>
	</wpt>
	<wpt lat="61.28" lon="21.48">
		<name>02952 - PORI</name>
	</wpt>
	<wpt lat="61.03" lon="28.12">
		<name>02958 - LAPPEENRANTA</name>
	</wpt>
	<wpt lat="60.58" lon="25.38">
		<name>02965 - LAHTI</name>
	</wpt>
	<wpt lat="60.54" lon="26.56">
		<name>02966 - UTTI</name>
	</wpt>
	<wpt lat="60.07" lon="19.54">
		<name>02970 - MARIEHAMN</name>
	</wpt>
	<wpt lat="60.31" lon="22.16">
		<name>02972 - TURKU</name>
	</wpt>
	<wpt lat="60.19" lon="24.58">
		<name>02974 - HELSINKI/VANT</name>
	</wpt>
	<wpt lat="60.15" lon="25.03">
		<name>02975 - HELSINKI</name>
	</wpt>
	<wpt lat="59.46" lon="22.57">
		<name>02982 - HANKO</name>
	</wpt>
	<wpt lat="60.08" lon="-1.11">
		<name>03005 - LERWICK</name>
	</wpt>
	<wpt lat="58.57" lon="-2.54">
		<name>03017 - KIRKWALL</name>
	</wpt>
	<wpt lat="58.13" lon="-6.19">
		<name>03026 - STORNOWAY</name>
	</wpt>
	<wpt lat="56.49" lon="-4.58">
		<name>03041 - AONACH MOR</name>
	</wpt>
	<wpt lat="58.17" lon="-4.26">
		<name>03044 - ALTNAHARRA</name>
	</wpt>
	<wpt lat="57.32" lon="-4.03">
		<name>03059 - INVERNESS</name>
	</wpt>
	<wpt lat="57.13" lon="-3.50">
		<name>03063 - AVIEMORE</name>
	</wpt>
	<wpt lat="57.07" lon="-3.38">
		<name>03065 - CAIRNGORM</name>
	</wpt>
	<wpt lat="57.39" lon="-3.34">
		<name>03066 - KINLOSS</name>
	</wpt>
	<wpt lat="57.43" lon="-3.19">
		<name>03068 - LOSSIEMOUTH</name>
	</wpt>
	<wpt lat="58.27" lon="-3.05">
		<name>03075 - WICK</name>
	</wpt>
	<wpt lat="57.12" lon="-2.13">
		<name>03091 - ABERDEEN</name>
	</wpt>
	<wpt lat="57.42" lon="-2.07">
		<name>03094 - ROSEHEARTY</name>
	</wpt>
	<wpt lat="56.30" lon="-6.53">
		<name>03100 - TIREE</name>
	</wpt>
	<wpt lat="56.25" lon="-5.28">
		<name>03114 - OBAN</name>
	</wpt>
	<wpt lat="54.52" lon="-4.56">
		<name>03132 - WEST FREUGH</name>
	</wpt>
	<wpt lat="55.30" lon="-4.36">
		<name>03135 - PRESTWICK</name>
	</wpt>
	<wpt lat="55.31" lon="-4.35">
		<name>03136 - PRESTWICK/RNA</name>
	</wpt>
	<wpt lat="55.52" lon="-4.26">
		<name>03140 - GLASGOW</name>
	</wpt>
	<wpt lat="55.03" lon="-3.39">
		<name>03154 - DUMFRIES</name>
	</wpt>
	<wpt lat="55.43" lon="-2.23">
		<name>03158 - CHARTERHALL</name>
	</wpt>
	<wpt lat="55.57" lon="-3.21">
		<name>03160 - EDINBURGH</name>
	</wpt>
	<wpt lat="55.19" lon="-3.12">
		<name>03162 - ESKDALEMUIR</name>
	</wpt>
	<wpt lat="56.23" lon="-2.52">
		<name>03171 - LEUCHARS</name>
	</wpt>
	<wpt lat="54.05" lon="-4.38">
		<name>03204 - ISLE OF MAN/R</name>
	</wpt>
	<wpt lat="54.56" lon="-2.58">
		<name>03220 - CARLISLE</name>
	</wpt>
	<wpt lat="54.49" lon="-2.05">
		<name>03235 - BOLTSHOPE PAR</name>
	</wpt>
	<wpt lat="55.02" lon="-1.41">
		<name>03245 - NEWCASTLE/AIR</name>
	</wpt>
	<wpt lat="55.02" lon="-1.41">
		<name>03246 - NEWCASTLE</name>
	</wpt>
	<wpt lat="54.18" lon="-1.32">
		<name>03257 - LEEMING</name>
	</wpt>
	<wpt lat="54.08" lon="-1.25">
		<name>03261 - DISHFORTH AIR</name>
	</wpt>
	<wpt lat="55.01" lon="-1.25">
		<name>03262 - TYNEMOUTH</name>
	</wpt>
	<wpt lat="54.12" lon="-1.23">
		<name>03265 - TOPCLIFFE</name>
	</wpt>
	<wpt lat="54.03" lon="-1.15">
		<name>03266 - LINTON-ON-OUS</name>
	</wpt>
	<wpt lat="54.20" lon="-0.31">
		<name>03275 - LOFTUS SAMOS</name>
	</wpt>
	<wpt lat="54.05" lon="-0.11">
		<name>03292 - BRIDLINGTON</name>
	</wpt>
	<wpt lat="53.15" lon="-4.32">
		<name>03302 - VALLEY</name>
	</wpt>
	<wpt lat="53.16" lon="-3.31">
		<name>03313 - RHYL</name>
	</wpt>
	<wpt lat="53.46" lon="-3.02">
		<name>03318 - BLACKPOOL</name>
	</wpt>
	<wpt lat="53.10" lon="-2.59">
		<name>03321 - HAWARDEN</name>
	</wpt>
	<wpt lat="53.21" lon="-2.16">
		<name>03334 - MANCHESTER</name>
	</wpt>
	<wpt lat="53.48" lon="-1.33">
		<name>03347 - LEEDS/MET</name>
	</wpt>
	<wpt lat="53.00" lon="-1.15">
		<name>03354 - NOTTINGHAM/ME</name>
	</wpt>
	<wpt lat="53.10" lon="0.31">
		<name>03377 - WADDINGTON</name>
	</wpt>
	<wpt lat="53.02" lon="-0.30">
		<name>03379 - CRANWELL</name>
	</wpt>
	<wpt lat="53.29" lon="0.05">
		<name>03385 - DONNA NOOK</name>
	</wpt>
	<wpt lat="52.47" lon="-4.44">
		<name>03405 - ABERDARON</name>
	</wpt>
	<wpt lat="52.48" lon="-2.40">
		<name>03414 - SHAWBURY</name>
	</wpt>
	<wpt lat="52.44" lon="-0.39">
		<name>03453 - COTTESMORE</name>
	</wpt>
	<wpt lat="52.37" lon="-0.28">
		<name>03462 - WITTERING</name>
	</wpt>
	<wpt lat="52.39" lon="0.34">
		<name>03482 - MARHAM</name>
	</wpt>
	<wpt lat="52.38" lon="1.18">
		<name>03492 - NORWICH-W.C.</name>
	</wpt>
	<wpt lat="52.46" lon="1.21">
		<name>03495 - COLTISHALL</name>
	</wpt>
	<wpt lat="52.41" lon="1.41">
		<name>03496 - HEMSBY</name>
	</wpt>
	<wpt lat="52.43" lon="2.18">
		<name>03499 - SM.KNOLL</name>
	</wpt>
	<wpt lat="52.08" lon="-4.34">
		<name>03502 - ABERPORTH</name>
	</wpt>
	<wpt lat="52.20" lon="-3.57">
		<name>03503 - TRAWSCOED</name>
	</wpt>
	<wpt lat="52.15" lon="-2.53">
		<name>03520 - SHOBDON</name>
	</wpt>
	<wpt lat="52.27" lon="-1.45">
		<name>03534 - BIRMINGHAM/AI</name>
	</wpt>
	<wpt lat="52.13" lon="-0.29">
		<name>03560 - BEDFORD</name>
	</wpt>
	<wpt lat="52.07" lon="0.58">
		<name>03590 - WATTISHAM</name>
	</wpt>
	<wpt lat="51.43" lon="-5.03">
		<name>03604 - MILFORD HAVEN</name>
	</wpt>
	<wpt lat="51.31" lon="-2.35">
		<name>03628 - BRISTOL/FILTO</name>
	</wpt>
	<wpt lat="51.52" lon="-1.41">
		<name>03647 - LITTLE RISSIN</name>
	</wpt>
	<wpt lat="51.45" lon="-1.35">
		<name>03649 - BRIZE NORTON</name>
	</wpt>
	<wpt lat="51.33" lon="-0.25">
		<name>03672 - NORTHOLT</name>
	</wpt>
	<wpt lat="51.53" lon="0.14">
		<name>03683 - STANSTED</name>
	</wpt>
	<wpt lat="51.05" lon="-4.09">
		<name>03707 - CHIVENOR</name>
	</wpt>
	<wpt lat="51.24" lon="-3.21">
		<name>03715 - CARDIFF-WALES</name>
	</wpt>
	<wpt lat="51.24" lon="-3.26">
		<name>03716 - ST. ATHAN /WA</name>
	</wpt>
	<wpt lat="51.28" lon="-2.36">
		<name>03726 - BRISTOL/MET.</name>
	</wpt>
	<wpt lat="51.30" lon="-1.59">
		<name>03740 - LYNEHAM</name>
	</wpt>
	<wpt lat="51.12" lon="-1.49">
		<name>03743 - LARKHILL</name>
	</wpt>
	<wpt lat="51.17" lon="0.46">
		<name>03768 - FARNBOROUGH</name>
	</wpt>
	<wpt lat="51.29" lon="-0.27">
		<name>03772 - LONDON</name>
	</wpt>
	<wpt lat="51.09" lon="-0.11">
		<name>03776 - LONDON/GATWIC</name>
	</wpt>
	<wpt lat="51.31" lon="-0.06">
		<name>03779 - LONDON WEATHE</name>
	</wpt>
	<wpt lat="51.18" lon="-0.05">
		<name>03781 - KENLEY</name>
	</wpt>
	<wpt lat="51.21" lon="1.21">
		<name>03797 - MANSTON</name>
	</wpt>
	<wpt lat="49.55" lon="-6.18">
		<name>03803 - SCILLY</name>
	</wpt>
	<wpt lat="50.13" lon="-5.20">
		<name>03808 - CAMBORNE</name>
	</wpt>
	<wpt lat="50.05" lon="-5.15">
		<name>03809 - CULDROSE</name>
	</wpt>
	<wpt lat="50.26" lon="-5.00">
		<name>03817 - ST. MAWGAN</name>
	</wpt>
	<wpt lat="50.21" lon="-4.07">
		<name>03827 - PLYMOUTH</name>
	</wpt>
	<wpt lat="50.44" lon="-3.25">
		<name>03839 - EXETER APT</name>
	</wpt>
	<wpt lat="51.01" lon="-2.38">
		<name>03853 - YEOVILTON</name>
	</wpt>
	<wpt lat="50.47" lon="-1.50">
		<name>03862 - BOURNEMOUTH/H</name>
	</wpt>
	<wpt lat="50.54" lon="-1.24">
		<name>03865 - SOUTHAMPTON</name>
	</wpt>
	<wpt lat="50.35" lon="-1.18">
		<name>03866 - ST.CATHERINE'</name>
	</wpt>
	<wpt lat="50.53" lon="0.19">
		<name>03882 - HERSTMONCEUX</name>
	</wpt>
	<wpt lat="51.45" lon="-1.16">
		<name>03890 - OXFORD</name>
	</wpt>
	<wpt lat="49.26" lon="-2.36">
		<name>03894 - GUERNSEY</name>
	</wpt>
	<wpt lat="49.13" lon="-2.12">
		<name>03895 - JERSEY-AIRPOR</name>
	</wpt>
	<wpt lat="54.24" lon="-7.39">
		<name>03903 - ST. ANGELO</name>
	</wpt>
	<wpt lat="55.04" lon="-7.01">
		<name>03908 - BALLYKELLY</name>
	</wpt>
	<wpt lat="55.12" lon="-6.39">
		<name>03914 - PORTRUSH</name>
	</wpt>
	<wpt lat="54.39" lon="-6.13">
		<name>03917 - BELFAST</name>
	</wpt>
	<wpt lat="53.20" lon="-2.52">
		<name>03930 - LIVERPOOL</name>
	</wpt>
	<wpt lat="51.56" lon="-10.14">
		<name>03953 - VALENTIA</name>
	</wpt>
	<wpt lat="51.51" lon="-8.29">
		<name>03955 - CORK AIRPORT</name>
	</wpt>
	<wpt lat="52.15" lon="-6.20">
		<name>03957 - ROSSLARE</name>
	</wpt>
	<wpt lat="52.22" lon="-1.29">
		<name>03958 - COVENTRY</name>
	</wpt>
	<wpt lat="52.40" lon="-7.16">
		<name>03960 - KILKENNY</name>
	</wpt>
	<wpt lat="52.51" lon="-6.55">
		<name>03961 - CARLOW OAK PA</name>
	</wpt>
	<wpt lat="52.42" lon="-8.55">
		<name>03962 - SHANNON</name>
	</wpt>
	<wpt lat="53.26" lon="-6.15">
		<name>03969 - DUBLIN</name>
	</wpt>
	<wpt lat="53.32" lon="-7.22">
		<name>03971 - MULLINGAR</name>
	</wpt>
	<wpt lat="54.14" lon="-10.01">
		<name>03976 - BELMULLET</name>
	</wpt>
	<wpt lat="55.22" lon="-7.20">
		<name>03980 - MALIN HEAD</name>
	</wpt>
	<wpt lat="63.58" lon="-22.36">
		<name>04018 - KEFLAVIK</name>
	</wpt>
	<wpt lat="64.08" lon="-21.54">
		<name>04030 - REYKJAVIK</name>
	</wpt>
	<wpt lat="63.24" lon="-20.17">
		<name>04048 - VESTMANNAEYJA</name>
	</wpt>
	<wpt lat="65.41" lon="-18.05">
		<name>04063 - AKUREYRI</name>
	</wpt>
	<wpt lat="63.53" lon="-16.39">
		<name>04072 - FAGURHOLSMYRI</name>
	</wpt>
	<wpt lat="64.42" lon="-14.06">
		<name>04094 - NUPUR</name>
	</wpt>
	<wpt lat="65.16" lon="-13.35">
		<name>04097 - DALATANGI</name>
	</wpt>
	<wpt lat="67.01" lon="-50.42">
		<name>04231 - SONDRESTROMFJ</name>
	</wpt>
	<wpt lat="64.10" lon="-51.45">
		<name>04250 - GODTHAB NUUK</name>
	</wpt>
	<wpt lat="61.09" lon="-45.26">
		<name>04270 - NARSARSUAQ</name>
	</wpt>
	<wpt lat="76.46" lon="-18.40">
		<name>04320 - DANMARKSHAVN</name>
	</wpt>
	<wpt lat="74.18" lon="-20.13">
		<name>04330 - DANEBORG</name>
	</wpt>
	<wpt lat="70.29" lon="-21.58">
		<name>04339 - SCORESBYSUND</name>
	</wpt>
	<wpt lat="65.36" lon="-37.38">
		<name>04360 - TASIILAQ</name>
	</wpt>
	<wpt lat="65.34" lon="-37.08">
		<name>04361 - KULUSUK</name>
	</wpt>
	<wpt lat="62.01" lon="-6.46">
		<name>06011 - FAROEER</name>
	</wpt>
	<wpt lat="57.06" lon="9.52">
		<name>06030 - ALBORG</name>
	</wpt>
	<wpt lat="57.46" lon="10.39">
		<name>06041 - SKAGEN</name>
	</wpt>
	<wpt lat="56.43" lon="8.13">
		<name>06052 - THYBORON</name>
	</wpt>
	<wpt lat="56.18" lon="9.07">
		<name>06060 - KARUP</name>
	</wpt>
	<wpt lat="56.33" lon="9.10">
		<name>06062 - SKIVE</name>
	</wpt>
	<wpt lat="56.18" lon="10.37">
		<name>06070 - TIRSTRUP</name>
	</wpt>
	<wpt lat="56.42" lon="11.33">
		<name>06078 - ANHOLT</name>
	</wpt>
	<wpt lat="55.31" lon="8.33">
		<name>06080 - ESBJERG</name>
	</wpt>
	<wpt lat="55.44" lon="9.09">
		<name>06104 - BILLUND</name>
	</wpt>
	<wpt lat="55.14" lon="9.16">
		<name>06110 - SKRYDSTRUP</name>
	</wpt>
	<wpt lat="54.51" lon="9.59">
		<name>06119 - KEGNAES</name>
	</wpt>
	<wpt lat="55.28" lon="10.20">
		<name>06120 - ODENSE</name>
	</wpt>
	<wpt lat="54.50" lon="11.20">
		<name>06141 - ABED</name>
	</wpt>
	<wpt lat="54.53" lon="12.11">
		<name>06147 - VINDEBAEK KYS</name>
	</wpt>
	<wpt lat="55.46" lon="12.20">
		<name>06160 - VAERLOESE</name>
	</wpt>
	<wpt lat="56.01" lon="11.17">
		<name>06169 - GNIBEN</name>
	</wpt>
	<wpt lat="55.35" lon="12.08">
		<name>06170 - KOEBENHAVN/RO</name>
	</wpt>
	<wpt lat="55.24" lon="12.09">
		<name>06174 - TESSEBOELLE</name>
	</wpt>
	<wpt lat="55.38" lon="12.40">
		<name>06180 - KOPENHAGEN</name>
	</wpt>
	<wpt lat="55.04" lon="14.45">
		<name>06190 - ROENNE/BORNH.</name>
	</wpt>
	<wpt lat="52.11" lon="4.25">
		<name>06210 - VALKENBURG</name>
	</wpt>
	<wpt lat="52.55" lon="4.47">
		<name>06235 - KOOY</name>
	</wpt>
	<wpt lat="52.18" lon="4.46">
		<name>06240 - AMSTERDAM</name>
	</wpt>
	<wpt lat="53.15" lon="4.55">
		<name>06242 - VLIELAND</name>
	</wpt>
	<wpt lat="53.22" lon="5.13">
		<name>06250 - TERSCHELLING</name>
	</wpt>
	<wpt lat="52.06" lon="5.11">
		<name>06260 - DE BILT</name>
	</wpt>
	<wpt lat="53.13" lon="5.46">
		<name>06270 - LEEUWARDEN</name>
	</wpt>
	<wpt lat="52.04" lon="5.53">
		<name>06275 - DEELEN</name>
	</wpt>
	<wpt lat="52.44" lon="6.31">
		<name>06279 - HOOGEVEEN</name>
	</wpt>
	<wpt lat="53.08" lon="6.35">
		<name>06280 - GRONINGEN</name>
	</wpt>
	<wpt lat="52.16" lon="6.54">
		<name>06290 - TWENTHE</name>
	</wpt>
	<wpt lat="51.26" lon="3.36">
		<name>06310 - VLISSINGEN</name>
	</wpt>
	<wpt lat="51.59" lon="4.07">
		<name>06330 - HOEK V.HOLL.</name>
	</wpt>
	<wpt lat="51.57" lon="4.27">
		<name>06344 - ROTTERDAM</name>
	</wpt>
	<wpt lat="51.34" lon="4.56">
		<name>06350 - GILZE RIJEN</name>
	</wpt>
	<wpt lat="51.27" lon="5.25">
		<name>06370 - EINDHOVEN</name>
	</wpt>
	<wpt lat="51.39" lon="5.42">
		<name>06375 - VOLKEL</name>
	</wpt>
	<wpt lat="50.55" lon="5.47">
		<name>06380 - MAASTRICHT</name>
	</wpt>
	<wpt lat="51.12" lon="2.52">
		<name>06407 - OOSTENDE</name>
	</wpt>
	<wpt lat="51.11" lon="3.49">
		<name>06431 - GENT</name>
	</wpt>
	<wpt lat="50.28" lon="4.27">
		<name>06449 - CHARLEROI</name>
	</wpt>
	<wpt lat="51.12" lon="4.28">
		<name>06450 - ANTWERPEN</name>
	</wpt>
	<wpt lat="50.54" lon="4.32">
		<name>06451 - BRUESSEL</name>
	</wpt>
	<wpt lat="50.14" lon="4.40">
		<name>06456 - FLORENNES</name>
	</wpt>
	<wpt lat="50.45" lon="4.46">
		<name>06458 - BEAUVECHAIN</name>
	</wpt>
	<wpt lat="50.02" lon="5.24">
		<name>06476 - ST.HUBERT</name>
	</wpt>
	<wpt lat="50.39" lon="5.27">
		<name>06478 - BIERSET</name>
	</wpt>
	<wpt lat="51.10" lon="5.28">
		<name>06479 - KLEINE BROGEL</name>
	</wpt>
	<wpt lat="50.29" lon="5.55">
		<name>06490 - SPA/LA SAUVEN</name>
	</wpt>
	<wpt lat="50.28" lon="6.11">
		<name>06496 - ELSENBORN</name>
	</wpt>
	<wpt lat="49.37" lon="6.13">
		<name>06590 - LUXEMBURG</name>
	</wpt>
	<wpt lat="47.32" lon="7.35">
		<name>06601 - BASEL</name>
	</wpt>
	<wpt lat="47.00" lon="6.57">
		<name>06604 - NEUCHATEL</name>
	</wpt>
	<wpt lat="47.08" lon="7.03">
		<name>06605 - CHASSERAL</name>
	</wpt>
	<wpt lat="47.03" lon="7.04">
		<name>06606 - CRESSIER</name>
	</wpt>
	<wpt lat="46.33" lon="7.01">
		<name>06609 - MOLESON</name>
	</wpt>
	<wpt lat="46.49" lon="6.56">
		<name>06610 - PAYERNE</name>
	</wpt>
	<wpt lat="47.05" lon="6.48">
		<name>06612 - LA CHAUX DE F</name>
	</wpt>
	<wpt lat="47.25" lon="6.56">
		<name>06616 - FAHY</name>
	</wpt>
	<wpt lat="46.50" lon="6.35">
		<name>06619 - LA FRETAZ</name>
	</wpt>
	<wpt lat="47.41" lon="8.37">
		<name>06620 - SCHAFFHAUSEN</name>
	</wpt>
	<wpt lat="47.36" lon="9.17">
		<name>06621 - GUETTINGEN</name>
	</wpt>
	<wpt lat="47.39" lon="9.01">
		<name>06623 - SALEN-REUTENE</name>
	</wpt>
	<wpt lat="47.42" lon="8.28">
		<name>06624 - HALLAU</name>
	</wpt>
	<wpt lat="46.46" lon="7.07">
		<name>06625 - FRIBOURG POSI</name>
	</wpt>
	<wpt lat="47.22" lon="7.58">
		<name>06626 - GOESGEN (KKW)</name>
	</wpt>
	<wpt lat="46.45" lon="7.16">
		<name>06628 - PLAFFEIEN-OBE</name>
	</wpt>
	<wpt lat="46.57" lon="7.17">
		<name>06629 - MUEHLEBERG /</name>
	</wpt>
	<wpt lat="46.55" lon="7.30">
		<name>06630 - BERN</name>
	</wpt>
	<wpt lat="46.59" lon="7.27">
		<name>06631 - BERN-LIEBEFEL</name>
	</wpt>
	<wpt lat="47.11" lon="7.25">
		<name>06632 - GRENCHEN</name>
	</wpt>
	<wpt lat="47.23" lon="8.05">
		<name>06633 - BUCHS-SUHR</name>
	</wpt>
	<wpt lat="47.07" lon="7.37">
		<name>06635 - KOPPIGEN</name>
	</wpt>
	<wpt lat="46.58" lon="7.17">
		<name>06636 - MUEHLEBERG (K</name>
	</wpt>
	<wpt lat="46.43" lon="8.10">
		<name>06637 - MEIRINGEN</name>
	</wpt>
	<wpt lat="46.56" lon="7.49">
		<name>06638 - LANGNAU I.E.</name>
	</wpt>
	<wpt lat="47.00" lon="7.56">
		<name>06639 - NAPF</name>
	</wpt>
	<wpt lat="47.34" lon="7.53">
		<name>06641 - MOEHLIN</name>
	</wpt>
	<wpt lat="47.16" lon="7.47">
		<name>06643 - WYNAU</name>
	</wpt>
	<wpt lat="47.26" lon="7.53">
		<name>06645 - RUENENBERG</name>
	</wpt>
	<wpt lat="47.34" lon="8.14">
		<name>06646 - BEZNAU</name>
	</wpt>
	<wpt lat="47.32" lon="8.14">
		<name>06647 - WUERENLINGEN</name>
	</wpt>
	<wpt lat="47.11" lon="8.00">
		<name>06648 - EGOLZWIL</name>
	</wpt>
	<wpt lat="47.01" lon="8.18">
		<name>06650 - LUZERN</name>
	</wpt>
	<wpt lat="46.57" lon="8.01">
		<name>06651 - SCHUEPFHEIM</name>
	</wpt>
	<wpt lat="46.49" lon="8.25">
		<name>06655 - ENGELBERG</name>
	</wpt>
	<wpt lat="46.50" lon="8.11">
		<name>06657 - GISWIL</name>
	</wpt>
	<wpt lat="46.59" lon="8.15">
		<name>06659 - PILATUS</name>
	</wpt>
	<wpt lat="47.23" lon="8.34">
		<name>06660 - ZUERICH (TOWN</name>
	</wpt>
	<wpt lat="47.26" lon="8.31">
		<name>06664 - RECKENHOLZ</name>
	</wpt>
	<wpt lat="47.36" lon="8.11">
		<name>06666 - LEIBSTADT (KK</name>
	</wpt>
	<wpt lat="47.29" lon="8.24">
		<name>06669 - LAEGERN</name>
	</wpt>
	<wpt lat="47.29" lon="8.32">
		<name>06670 - ZUERICH</name>
	</wpt>
	<wpt lat="46.52" lon="8.38">
		<name>06672 - ALTDORF</name>
	</wpt>
	<wpt lat="47.13" lon="8.41">
		<name>06673 - WAEDENSwl</name>
	</wpt>
	<wpt lat="47.11" lon="8.28">
		<name>06674 - CHAM</name>
	</wpt>
	<wpt lat="47.08" lon="8.46">
		<name>06675 - EINSIEDELN</name>
	</wpt>
	<wpt lat="47.08" lon="8.37">
		<name>06676 - OBERAEGERI</name>
	</wpt>
	<wpt lat="47.30" lon="9.14">
		<name>06678 - BISCHOFSZELL</name>
	</wpt>
	<wpt lat="47.28" lon="8.54">
		<name>06679 - TAENIKON</name>
	</wpt>
	<wpt lat="47.15" lon="9.20">
		<name>06680 - SAENTIS</name>
	</wpt>
	<wpt lat="47.26" lon="9.24">
		<name>06681 - ST.GALLEN</name>
	</wpt>
	<wpt lat="46.55" lon="9.11">
		<name>06682 - ELM</name>
	</wpt>
	<wpt lat="47.13" lon="8.56">
		<name>06683 - SCHMERIKON</name>
	</wpt>
	<wpt lat="47.02" lon="9.04">
		<name>06685 - GLARUS</name>
	</wpt>
	<wpt lat="47.08" lon="9.13">
		<name>06687 - QUINTEN</name>
	</wpt>
	<wpt lat="46.50" lon="9.11">
		<name>06688 - CRAP MASEGN</name>
	</wpt>
	<wpt lat="47.22" lon="8.56">
		<name>06689 - HOERNLI</name>
	</wpt>
	<wpt lat="47.29" lon="9.34">
		<name>06690 - ALTENRHEIN</name>
	</wpt>
	<wpt lat="47.16" lon="9.07">
		<name>06693 - EBNAT-KAPPEL</name>
	</wpt>
	<wpt lat="46.15" lon="6.08">
		<name>06700 - GENF</name>
	</wpt>
	<wpt lat="46.25" lon="6.06">
		<name>06702 - LA DOLE</name>
	</wpt>
	<wpt lat="46.32" lon="6.20">
		<name>06704 - BIERE</name>
	</wpt>
	<wpt lat="46.24" lon="6.14">
		<name>06705 - CHANGINS</name>
	</wpt>
	<wpt lat="47.10" lon="7.05">
		<name>06710 - COURTELARY</name>
	</wpt>
	<wpt lat="46.31" lon="6.40">
		<name>06711 - PULLY</name>
	</wpt>
	<wpt lat="46.20" lon="6.55">
		<name>06712 - AIGLE</name>
	</wpt>
	<wpt lat="45.52" lon="7.10">
		<name>06717 - GRAND-ST-BERN</name>
	</wpt>
	<wpt lat="46.13" lon="7.20">
		<name>06720 - SION</name>
	</wpt>
	<wpt lat="46.07" lon="7.31">
		<name>06722 - EVOLENE-VILLA</name>
	</wpt>
	<wpt lat="46.17" lon="7.27">
		<name>06724 - MONTANA</name>
	</wpt>
	<wpt lat="46.18" lon="7.50">
		<name>06727 - VISP</name>
	</wpt>
	<wpt lat="46.32" lon="7.59">
		<name>06730 - JUNGFRAUJOCH</name>
	</wpt>
	<wpt lat="46.40" lon="7.52">
		<name>06734 - INTERLAKEN</name>
	</wpt>
	<wpt lat="46.30" lon="7.34">
		<name>06735 - ADELBODEN</name>
	</wpt>
	<wpt lat="46.34" lon="8.20">
		<name>06744 - GRIMSEL-HOSPI</name>
	</wpt>
	<wpt lat="46.30" lon="8.19">
		<name>06745 - ULRICHEN</name>
	</wpt>
	<wpt lat="46.02" lon="7.45">
		<name>06748 - ZERMATT</name>
	</wpt>
	<wpt lat="46.39" lon="8.37">
		<name>06750 - GUETSCH</name>
	</wpt>
	<wpt lat="46.27" lon="8.31">
		<name>06751 - ROBIEI</name>
	</wpt>
	<wpt lat="46.31" lon="8.41">
		<name>06753 - PIOTTA</name>
	</wpt>
	<wpt lat="46.28" lon="8.56">
		<name>06756 - COMPROVASCO</name>
	</wpt>
	<wpt lat="46.12" lon="8.48">
		<name>06759 - CIMETTA</name>
	</wpt>
	<wpt lat="46.10" lon="8.47">
		<name>06760 - LOCARNO-MONTI</name>
	</wpt>
	<wpt lat="46.09" lon="8.56">
		<name>06762 - CADENAZZO</name>
	</wpt>
	<wpt lat="46.00" lon="8.58">
		<name>06770 - LUGANO</name>
	</wpt>
	<wpt lat="45.50" lon="8.56">
		<name>06771 - STABIO</name>
	</wpt>
	<wpt lat="46.00" lon="8.54">
		<name>06775 - LUGANO</name>
	</wpt>
	<wpt lat="46.39" lon="10.16">
		<name>06778 - BUFFALORA</name>
	</wpt>
	<wpt lat="46.50" lon="9.49">
		<name>06780 - WEISSFLUHJOCH</name>
	</wpt>
	<wpt lat="46.42" lon="8.51">
		<name>06782 - DISENTIS</name>
	</wpt>
	<wpt lat="46.28" lon="9.11">
		<name>06783 - SAN BERNARDIN</name>
	</wpt>
	<wpt lat="46.49" lon="9.51">
		<name>06784 - DAVOS</name>
	</wpt>
	<wpt lat="46.52" lon="9.32">
		<name>06786 - CHUR</name>
	</wpt>
	<wpt lat="46.37" lon="9.25">
		<name>06787 - ANDEER</name>
	</wpt>
	<wpt lat="46.21" lon="9.37">
		<name>06788 - VICOSOPRANO</name>
	</wpt>
	<wpt lat="46.58" lon="9.40">
		<name>06790 - SCHIERS</name>
	</wpt>
	<wpt lat="46.25" lon="9.49">
		<name>06791 - CORVATSCH</name>
	</wpt>
	<wpt lat="46.32" lon="9.53">
		<name>06792 - SAMEDAN</name>
	</wpt>
	<wpt lat="46.46" lon="9.33">
		<name>06793 - VALBELLA</name>
	</wpt>
	<wpt lat="46.21" lon="10.04">
		<name>06794 - ROBBIA</name>
	</wpt>
	<wpt lat="46.35" lon="9.32">
		<name>06795 - PIZ MARTEGNAS</name>
	</wpt>
	<wpt lat="46.36" lon="10.26">
		<name>06796 - STA. MARIA VA</name>
	</wpt>
	<wpt lat="46.48" lon="10.16">
		<name>06798 - SCOULS</name>
	</wpt>
	<wpt lat="46.49" lon="10.16">
		<name>06799 - NALUNS / SCHL</name>
	</wpt>
	<wpt lat="47.08" lon="9.31">
		<name>06990 - VADUZ FL.</name>
	</wpt>
	<wpt lat="50.44" lon="1.36">
		<name>07002 - BOULOGNE</name>
	</wpt>
	<wpt lat="50.08" lon="1.50">
		<name>07005 - ABBEVILLE</name>
	</wpt>
	<wpt lat="50.34" lon="3.06">
		<name>07015 - LILLE</name>
	</wpt>
	<wpt lat="50.13" lon="3.09">
		<name>07017 - CAMBRAI</name>
	</wpt>
	<wpt lat="49.43" lon="-1.56">
		<name>07020 - LA HAGUE</name>
	</wpt>
	<wpt lat="49.39" lon="-1.28">
		<name>07024 - CHERBOURG</name>
	</wpt>
	<wpt lat="49.11" lon="-0.27">
		<name>07027 - CAEN</name>
	</wpt>
	<wpt lat="49.31" lon="0.04">
		<name>07028 - LA HEVE</name>
	</wpt>
	<wpt lat="49.23" lon="1.11">
		<name>07037 - ROUEN</name>
	</wpt>
	<wpt lat="49.01" lon="1.13">
		<name>07038 - EVREUX</name>
	</wpt>
	<wpt lat="49.56" lon="1.06">
		<name>07040 - DIEPPE</name>
	</wpt>
	<wpt lat="49.28" lon="2.07">
		<name>07055 - BEAUVAIS</name>
	</wpt>
	<wpt lat="49.49" lon="3.12">
		<name>07061 - SAINT-QUENTIN</name>
	</wpt>
	<wpt lat="49.18" lon="4.02">
		<name>07070 - REIMS</name>
	</wpt>
	<wpt lat="49.47" lon="4.38">
		<name>07075 - CHARLEVILLE</name>
	</wpt>
	<wpt lat="49.05" lon="6.08">
		<name>07090 - METZ</name>
	</wpt>
	<wpt lat="48.59" lon="6.15">
		<name>07093 - M.N.L.</name>
	</wpt>
	<wpt lat="48.28" lon="-5.08">
		<name>07100 - OUESSANT</name>
	</wpt>
	<wpt lat="48.27" lon="-4.25">
		<name>07110 - BREST</name>
	</wpt>
	<wpt lat="48.32" lon="-2.51">
		<name>07120 - ST.BRIEUC</name>
	</wpt>
	<wpt lat="48.35" lon="-2.04">
		<name>07125 - DINARD APT</name>
	</wpt>
	<wpt lat="48.04" lon="-1.44">
		<name>07130 - RENNES</name>
	</wpt>
	<wpt lat="48.50" lon="-1.37">
		<name>07133 - POINTE DU ROC</name>
	</wpt>
	<wpt lat="48.26" lon="0.06">
		<name>07139 - ALENCON</name>
	</wpt>
	<wpt lat="48.28" lon="1.31">
		<name>07143 - CHARTRES</name>
	</wpt>
	<wpt lat="48.44" lon="2.24">
		<name>07149 - PARIS</name>
	</wpt>
	<wpt lat="48.58" lon="2.26">
		<name>07150 - PARIS-LE BOUR</name>
	</wpt>
	<wpt lat="49.01" lon="2.32">
		<name>07157 - PARIS CH.D.GA</name>
	</wpt>
	<wpt lat="48.47" lon="4.10">
		<name>07166 - VATRY-AERO</name>
	</wpt>
	<wpt lat="48.20" lon="4.01">
		<name>07168 - TROYES</name>
	</wpt>
	<wpt lat="48.38" lon="4.54">
		<name>07169 - ST. DIZIER</name>
	</wpt>
	<wpt lat="48.12" lon="6.26">
		<name>07173 - EPINAL</name>
	</wpt>
	<wpt lat="48.41" lon="6.13">
		<name>07180 - NANCY</name>
	</wpt>
	<wpt lat="48.35" lon="5.58">
		<name>07181 - NANCY-OCHEY</name>
	</wpt>
	<wpt lat="48.33" lon="7.38">
		<name>07190 - STRASSBURG</name>
	</wpt>
	<wpt lat="47.55" lon="7.24">
		<name>07197 - COLMAR</name>
	</wpt>
	<wpt lat="47.48" lon="-4.22">
		<name>07200 - PENMARCH</name>
	</wpt>
	<wpt lat="47.58" lon="-4.10">
		<name>07201 - QUIMPER</name>
	</wpt>
	<wpt lat="47.46" lon="-3.27">
		<name>07205 - LANN BIHOUE</name>
	</wpt>
	<wpt lat="47.10" lon="-1.36">
		<name>07222 - NANTES</name>
	</wpt>
	<wpt lat="47.57" lon="0.12">
		<name>07235 - LE MANS</name>
	</wpt>
	<wpt lat="47.27" lon="0.43">
		<name>07240 - TOURS</name>
	</wpt>
	<wpt lat="47.59" lon="1.47">
		<name>07249 - ORLEANS</name>
	</wpt>
	<wpt lat="47.04" lon="2.22">
		<name>07255 - BOURGES</name>
	</wpt>
	<wpt lat="47.00" lon="3.06">
		<name>07260 - NEVERS</name>
	</wpt>
	<wpt lat="47.48" lon="3.33">
		<name>07265 - AUXERRE</name>
	</wpt>
	<wpt lat="47.16" lon="5.05">
		<name>07280 - DIJON</name>
	</wpt>
	<wpt lat="47.15" lon="5.59">
		<name>07288 - BESANCON</name>
	</wpt>
	<wpt lat="47.36" lon="7.31">
		<name>07299 - BASEL-MLH.</name>
	</wpt>
	<wpt lat="46.42" lon="-1.23">
		<name>07306 - LA ROCHE-SUR-</name>
	</wpt>
	<wpt lat="46.09" lon="-1.09">
		<name>07315 - LA ROCHELLE</name>
	</wpt>
	<wpt lat="46.35" lon="0.18">
		<name>07335 - POITIERS</name>
	</wpt>
	<wpt lat="46.52" lon="1.43">
		<name>07354 - CHATEAUROUX</name>
	</wpt>
	<wpt lat="46.25" lon="4.01">
		<name>07379 - SAINT-YAN.</name>
	</wpt>
	<wpt lat="46.18" lon="4.48">
		<name>07385 - MACON</name>
	</wpt>
	<wpt lat="45.52" lon="1.11">
		<name>07434 - LIMOGES</name>
	</wpt>
	<wpt lat="45.47" lon="3.10">
		<name>07460 - CLERMONT</name>
	</wpt>
	<wpt lat="45.32" lon="4.18">
		<name>07475 - ST. ETIENNE</name>
	</wpt>
	<wpt lat="45.43" lon="4.57">
		<name>07480 - LYON/BRON</name>
	</wpt>
	<wpt lat="45.44" lon="5.05">
		<name>07481 - LYON/SATOLAS</name>
	</wpt>
	<wpt lat="45.22" lon="5.20">
		<name>07486 - GRENOBLE</name>
	</wpt>
	<wpt lat="45.39" lon="5.53">
		<name>07491 - CHAMBERY - AI</name>
	</wpt>
	<wpt lat="45.37" lon="6.46">
		<name>07497 - BOURG-ST-M</name>
	</wpt>
	<wpt lat="44.50" lon="-0.42">
		<name>07510 - BORDEAUX</name>
	</wpt>
	<wpt lat="44.07" lon="3.01">
		<name>07558 - MILLAU</name>
	</wpt>
	<wpt lat="44.35" lon="4.44">
		<name>07577 - MONTELIMAR</name>
	</wpt>
	<wpt lat="44.08" lon="4.50">
		<name>07579 - ORANGE</name>
	</wpt>
	<wpt lat="44.04" lon="6.00">
		<name>07588 - ST.AUBAN</name>
	</wpt>
	<wpt lat="44.55" lon="6.39">
		<name>07593 - BRIANCON</name>
	</wpt>
	<wpt lat="43.24" lon="-1.41">
		<name>07600 - SOCOA</name>
	</wpt>
	<wpt lat="43.28" lon="-1.32">
		<name>07602 - BIARRITZ</name>
	</wpt>
	<wpt lat="43.23" lon="-0.25">
		<name>07610 - PAU</name>
	</wpt>
	<wpt lat="43.11" lon="0.00">
		<name>07621 - TARBES/OSSUN</name>
	</wpt>
	<wpt lat="43.41" lon="0.36">
		<name>07622 - AUCH</name>
	</wpt>
	<wpt lat="43.38" lon="1.22">
		<name>07630 - TOULOUSE</name>
	</wpt>
	<wpt lat="43.13" lon="2.19">
		<name>07635 - CARCASSONNE</name>
	</wpt>
	<wpt lat="43.18" lon="3.24">
		<name>07638 - BEZIER-VIAS</name>
	</wpt>
	<wpt lat="43.35" lon="3.58">
		<name>07643 - MONTPELLIER</name>
	</wpt>
	<wpt lat="43.52" lon="4.24">
		<name>07645 - NIMES/COURBES</name>
	</wpt>
	<wpt lat="43.36" lon="5.06">
		<name>07648 - SALON</name>
	</wpt>
	<wpt lat="43.27" lon="5.13">
		<name>07650 - MARSEILLE</name>
	</wpt>
	<wpt lat="43.06" lon="6.09">
		<name>07667 - HYERES/ALMANA</name>
	</wpt>
	<wpt lat="43.00" lon="6.14">
		<name>07670 - PORQUEROLLES</name>
	</wpt>
	<wpt lat="43.23" lon="6.23">
		<name>07675 - LE LUC</name>
	</wpt>
	<wpt lat="43.25" lon="6.45">
		<name>07680 - ST.RAPHAEL</name>
	</wpt>
	<wpt lat="43.33" lon="6.57">
		<name>07684 - CANNES</name>
	</wpt>
	<wpt lat="43.39" lon="7.12">
		<name>07690 - NIZZA</name>
	</wpt>
	<wpt lat="43.41" lon="7.20">
		<name>07695 - CAP FERRAT</name>
	</wpt>
	<wpt lat="42.44" lon="2.52">
		<name>07747 - PERPIGNAN</name>
	</wpt>
	<wpt lat="42.32" lon="8.48">
		<name>07754 - CALVI</name>
	</wpt>
	<wpt lat="41.55" lon="8.48">
		<name>07761 - AJACCIO</name>
	</wpt>
	<wpt lat="41.22" lon="9.11">
		<name>07770 - PERTUSATO / C</name>
	</wpt>
	<wpt lat="41.30" lon="9.06">
		<name>07780 - FIGARI</name>
	</wpt>
	<wpt lat="43.00" lon="9.22">
		<name>07785 - CAP CORSE</name>
	</wpt>
	<wpt lat="42.33" lon="9.29">
		<name>07790 - BASTIA</name>
	</wpt>
	<wpt lat="43.22" lon="-8.25">
		<name>08001 - LA CORUNA</name>
	</wpt>
	<wpt lat="43.32" lon="-7.01">
		<name>08009 - RIBADEO</name>
	</wpt>
	<wpt lat="43.33" lon="-5.55">
		<name>08013 - AVILES/DIV.PA</name>
	</wpt>
	<wpt lat="43.32" lon="-5.38">
		<name>08014 - GIJON</name>
	</wpt>
	<wpt lat="43.21" lon="-5.52">
		<name>08015 - OVIEDO</name>
	</wpt>
	<wpt lat="43.26" lon="-3.49">
		<name>08021 - SANTANDER/PAR</name>
	</wpt>
	<wpt lat="43.29" lon="-3.48">
		<name>08023 - SANTANDER</name>
	</wpt>
	<wpt lat="43.18" lon="-2.56">
		<name>08025 - BILBAO</name>
	</wpt>
	<wpt lat="43.18" lon="-2.03">
		<name>08027 - SAN SEBASTIAN</name>
	</wpt>
	<wpt lat="43.21" lon="-1.48">
		<name>08029 - SAN SEBASTIAN</name>
	</wpt>
	<wpt lat="42.56" lon="-9.17">
		<name>08040 - FISTERRA</name>
	</wpt>
	<wpt lat="42.54" lon="-8.26">
		<name>08042 - SANTIAGO</name>
	</wpt>
	<wpt lat="42.13" lon="-8.38">
		<name>08045 - VIGO/PEINADOR</name>
	</wpt>
	<wpt lat="42.35" lon="-5.39">
		<name>08055 - LEON</name>
	</wpt>
	<wpt lat="42.22" lon="-3.38">
		<name>08075 - BURGOS-VILLAF</name>
	</wpt>
	<wpt lat="42.52" lon="-2.44">
		<name>08080 - VITORIA OBSER</name>
	</wpt>
	<wpt lat="41.43" lon="-4.51">
		<name>08140 - VALLADOLID</name>
	</wpt>
	<wpt lat="41.38" lon="-4.45">
		<name>08141 - VALLADOLID</name>
	</wpt>
	<wpt lat="41.40" lon="-1.01">
		<name>08160 - ZARAGOZA</name>
	</wpt>
	<wpt lat="41.37" lon="0.38">
		<name>08171 - LERIDA</name>
	</wpt>
	<wpt lat="41.09" lon="1.10">
		<name>08175 - REUS</name>
	</wpt>
	<wpt lat="41.17" lon="2.04">
		<name>08181 - BARCELONA</name>
	</wpt>
	<wpt lat="41.31" lon="2.07">
		<name>08183 - SABADELL</name>
	</wpt>
	<wpt lat="41.54" lon="2.46">
		<name>08184 - GERONA/COST.B</name>
	</wpt>
	<wpt lat="40.57" lon="-5.30">
		<name>08202 - SALAMANCA/MAT</name>
	</wpt>
	<wpt lat="40.27" lon="-3.33">
		<name>08221 - MADRID/BARAJA</name>
	</wpt>
	<wpt lat="40.29" lon="-3.27">
		<name>08227 - MADRID</name>
	</wpt>
	<wpt lat="39.53" lon="-4.03">
		<name>08272 - TOLEDO BUENAV</name>
	</wpt>
	<wpt lat="38.57" lon="-1.51">
		<name>08280 - ALBACETE/LOS</name>
	</wpt>
	<wpt lat="39.30" lon="-0.28">
		<name>08284 - VALENCIA</name>
	</wpt>
	<wpt lat="39.57" lon="0.04">
		<name>08286 - CASTELLON DE</name>
	</wpt>
	<wpt lat="39.33" lon="2.44">
		<name>08306 - PALMA</name>
	</wpt>
	<wpt lat="39.54" lon="3.06">
		<name>08307 - POLLENSA</name>
	</wpt>
	<wpt lat="39.52" lon="4.14">
		<name>08314 - MENORCA</name>
	</wpt>
	<wpt lat="38.53" lon="-6.49">
		<name>08330 - BADAJOZ/TALAV</name>
	</wpt>
	<wpt lat="38.17" lon="-0.33">
		<name>08360 - ALICANTE</name>
	</wpt>
	<wpt lat="38.47" lon="-0.10">
		<name>08370 - JAVEA/YUNTAMI</name>
	</wpt>
	<wpt lat="38.52" lon="1.23">
		<name>08373 - IBIZA</name>
	</wpt>
	<wpt lat="37.17" lon="-6.55">
		<name>08383 - HUELVA</name>
	</wpt>
	<wpt lat="37.22" lon="-6.00">
		<name>08390 - SEVILLA</name>
	</wpt>
	<wpt lat="37.25" lon="-5.53">
		<name>08391 - SEVILLA/SAN P</name>
	</wpt>
	<wpt lat="37.09" lon="-5.37">
		<name>08397 - MORON DE LA F</name>
	</wpt>
	<wpt lat="37.51" lon="-4.51">
		<name>08410 - CORDOBA</name>
	</wpt>
	<wpt lat="37.11" lon="-3.47">
		<name>08419 - GRANADA/AEROP</name>
	</wpt>
	<wpt lat="38.00" lon="-1.10">
		<name>08430 - MURCIA</name>
	</wpt>
	<wpt lat="37.25" lon="-1.35">
		<name>08432 - AGUILAS</name>
	</wpt>
	<wpt lat="37.47" lon="-0.48">
		<name>08433 - MURCIA/SAN JA</name>
	</wpt>
	<wpt lat="36.45" lon="-6.04">
		<name>08451 - JEREZ DE LA F</name>
	</wpt>
	<wpt lat="36.40" lon="-4.29">
		<name>08482 - MALAGA</name>
	</wpt>
	<wpt lat="36.43" lon="-3.32">
		<name>08485 - MOTRIL/CLUB N</name>
	</wpt>
	<wpt lat="36.51" lon="-2.23">
		<name>08487 - ALMERIA</name>
	</wpt>
	<wpt lat="36.09" lon="-5.21">
		<name>08495 - GIBRALTAR</name>
	</wpt>
	<wpt lat="39.27" lon="-31.08">
		<name>08501 - FLORES/AZOREN</name>
	</wpt>
	<wpt lat="38.31" lon="-28.43">
		<name>08505 - AZOREN</name>
	</wpt>
	<wpt lat="38.46" lon="-27.06">
		<name>08509 - LAJES/AZOREN</name>
	</wpt>
	<wpt lat="37.45" lon="-25.40">
		<name>08513 - PONTA DELGADA</name>
	</wpt>
	<wpt lat="36.58" lon="-25.10">
		<name>08515 - SANTA MARIA</name>
	</wpt>
	<wpt lat="32.41" lon="-16.46">
		<name>08521 - FUNCHAL</name>
	</wpt>
	<wpt lat="38.50" lon="-9.20">
		<name>08532 - SINTRA/GRANJA</name>
	</wpt>
	<wpt lat="38.47" lon="-9.08">
		<name>08536 - LISSABON</name>
	</wpt>
	<wpt lat="37.00" lon="-8.57">
		<name>08538 - SAGRES</name>
	</wpt>
	<wpt lat="39.50" lon="-8.53">
		<name>08540 - MONTE REAL</name>
	</wpt>
	<wpt lat="37.57" lon="-8.50">
		<name>08541 - SINES (MONTES</name>
	</wpt>
	<wpt lat="41.14" lon="-8.41">
		<name>08545 - PORTO</name>
	</wpt>
	<wpt lat="41.08" lon="-8.36">
		<name>08546 - PORTO/SERRA D</name>
	</wpt>
	<wpt lat="40.39" lon="-8.44">
		<name>08547 - AVEIRO</name>
	</wpt>
	<wpt lat="40.09" lon="-8.28">
		<name>08548 - COIMBRA/CERVA</name>
	</wpt>
	<wpt lat="41.38" lon="-8.48">
		<name>08551 - VIANA DO CAST</name>
	</wpt>
	<wpt lat="37.01" lon="-7.58">
		<name>08554 - FARO</name>
	</wpt>
	<wpt lat="38.01" lon="-7.52">
		<name>08562 - BEJA</name>
	</wpt>
	<wpt lat="41.16" lon="-7.43">
		<name>08567 - VILA REAL</name>
	</wpt>
	<wpt lat="39.17" lon="-7.25">
		<name>08571 - PORTALEGRE</name>
	</wpt>
	<wpt lat="38.46" lon="-9.08">
		<name>08579 - LISBOA/GAGO C</name>
	</wpt>
	<wpt lat="14.54" lon="-23.31">
		<name>08589 - CAP VERDEN/PR</name>
	</wpt>
	<wpt lat="16.44" lon="-22.57">
		<name>08594 - SAL</name>
	</wpt>
	<wpt lat="54.10" lon="6.21">
		<name>10004 - UFS TW EMS</name>
	</wpt>
	<wpt lat="54.10" lon="7.27">
		<name>10007 - UFS DEUTSCHE</name>
	</wpt>
	<wpt lat="54.10" lon="7.53">
		<name>10015 - HELGOLAND</name>
	</wpt>
	<wpt lat="54.55" lon="8.21">
		<name>10018 - WESTERLAND</name>
	</wpt>
	<wpt lat="55.01" lon="8.25">
		<name>10020 - LIST/SYLT</name>
	</wpt>
	<wpt lat="54.48" lon="8.57">
		<name>10022 - LECK</name>
	</wpt>
	<wpt lat="54.31" lon="9.09">
		<name>10026 - HUSUM</name>
	</wpt>
	<wpt lat="54.20" lon="8.36">
		<name>10028 - ST. PETER ORD</name>
	</wpt>
	<wpt lat="54.50" lon="9.30">
		<name>10033 - FLENSBURG</name>
	</wpt>
	<wpt lat="54.38" lon="9.21">
		<name>10034 - EGGEBEK</name>
	</wpt>
	<wpt lat="54.32" lon="9.33">
		<name>10035 - SCHLESWIG</name>
	</wpt>
	<wpt lat="54.28" lon="9.31">
		<name>10037 - SCHLESWIG-JAG</name>
	</wpt>
	<wpt lat="54.19" lon="9.32">
		<name>10038 - HOHN</name>
	</wpt>
	<wpt lat="54.40" lon="10.02">
		<name>10042 - OLPENITZ</name>
	</wpt>
	<wpt lat="54.30" lon="10.16">
		<name>10044 - LEUCHTTURM KI</name>
	</wpt>
	<wpt lat="54.23" lon="10.09">
		<name>10046 - KIEL-H.</name>
	</wpt>
	<wpt lat="54.32" lon="11.04">
		<name>10055 - WESTERMARKELS</name>
	</wpt>
	<wpt lat="54.30" lon="11.13">
		<name>10063 - PUTTGARDEN</name>
	</wpt>
	<wpt lat="54.41" lon="13.26">
		<name>10091 - ARKONA</name>
	</wpt>
	<wpt lat="54.22" lon="13.29">
		<name>10093 - PUTBUS</name>
	</wpt>
	<wpt lat="54.14" lon="13.55">
		<name>10097 - GREIFSWALDER</name>
	</wpt>
	<wpt lat="53.43" lon="7.09">
		<name>10113 - NORDERNEY</name>
	</wpt>
	<wpt lat="53.32" lon="7.53">
		<name>10122 - JEVER</name>
	</wpt>
	<wpt lat="53.51" lon="8.07">
		<name>10124 - LEUCHTTURM A.</name>
	</wpt>
	<wpt lat="53.30" lon="8.03">
		<name>10125 - WILHELMSHAVEN</name>
	</wpt>
	<wpt lat="53.33" lon="7.40">
		<name>10126 - WITTMUNDHAVEN</name>
	</wpt>
	<wpt lat="53.32" lon="8.35">
		<name>10129 - BREMERHAVEN</name>
	</wpt>
	<wpt lat="54.04" lon="9.01">
		<name>10130 - ELPERSBUETTEL</name>
	</wpt>
	<wpt lat="53.52" lon="8.43">
		<name>10131 - CUXHAVEN</name>
	</wpt>
	<wpt lat="53.46" lon="8.40">
		<name>10136 - NORDHOLZ</name>
	</wpt>
	<wpt lat="53.30" lon="9.10">
		<name>10139 - BREMERVOERDE</name>
	</wpt>
	<wpt lat="54.00" lon="9.35">
		<name>10142 - ITZEHOE</name>
	</wpt>
	<wpt lat="54.05" lon="9.56">
		<name>10143 - NEUMUENSTER</name>
	</wpt>
	<wpt lat="53.44" lon="9.53">
		<name>10146 - QUICKBORN</name>
	</wpt>
	<wpt lat="53.38" lon="10.00">
		<name>10147 - HAMBURG-FU.</name>
	</wpt>
	<wpt lat="54.10" lon="10.21">
		<name>10150 - DOERNICK</name>
	</wpt>
	<wpt lat="54.05" lon="10.53">
		<name>10152 - PELZERHAKEN</name>
	</wpt>
	<wpt lat="53.49" lon="10.42">
		<name>10156 - LUEBECK</name>
	</wpt>
	<wpt lat="54.00" lon="11.11">
		<name>10161 - BOLTENHAGEN</name>
	</wpt>
	<wpt lat="53.38" lon="11.23">
		<name>10162 - SCHWERIN</name>
	</wpt>
	<wpt lat="53.37" lon="12.06">
		<name>10168 - GOLDBERG</name>
	</wpt>
	<wpt lat="54.11" lon="12.05">
		<name>10170 - WARNEMUENDE</name>
	</wpt>
	<wpt lat="53.55" lon="12.17">
		<name>10172 - LAAGE</name>
	</wpt>
	<wpt lat="53.46" lon="12.37">
		<name>10177 - TETEROW</name>
	</wpt>
	<wpt lat="54.20" lon="12.43">
		<name>10180 - BARTH</name>
	</wpt>
	<wpt lat="54.22" lon="13.05">
		<name>10181 - PAROW</name>
	</wpt>
	<wpt lat="54.06" lon="13.25">
		<name>10184 - GREIFSWALD</name>
	</wpt>
	<wpt lat="53.44" lon="14.04">
		<name>10193 - UECKERMUENDE</name>
	</wpt>
	<wpt lat="53.23" lon="7.14">
		<name>10200 - EMDEN-FLUGPLA</name>
	</wpt>
	<wpt lat="53.21" lon="7.12">
		<name>10203 - EMDEN</name>
	</wpt>
	<wpt lat="53.04" lon="7.54">
		<name>10210 - FRIESOYTHE-AL</name>
	</wpt>
	<wpt lat="53.11" lon="8.10">
		<name>10215 - OLDENBURG</name>
	</wpt>
	<wpt lat="52.53" lon="8.14">
		<name>10218 - AHLHORN</name>
	</wpt>
	<wpt lat="53.03" lon="8.48">
		<name>10224 - BREMEN</name>
	</wpt>
	<wpt lat="53.08" lon="9.21">
		<name>10234 - ROTENBURG</name>
	</wpt>
	<wpt lat="52.58" lon="9.47">
		<name>10235 - SOLTAU</name>
	</wpt>
	<wpt lat="52.49" lon="9.56">
		<name>10238 - BERGEN-HOHNE</name>
	</wpt>
	<wpt lat="52.55" lon="10.11">
		<name>10246 - FASSBERG</name>
	</wpt>
	<wpt lat="53.23" lon="10.41">
		<name>10249 - BOIZENBURG</name>
	</wpt>
	<wpt lat="52.58" lon="11.08">
		<name>10253 - LUECHOW</name>
	</wpt>
	<wpt lat="52.53" lon="11.44">
		<name>10261 - SEEHAUSEN</name>
	</wpt>
	<wpt lat="53.19" lon="11.56">
		<name>10264 - MARNITZ</name>
	</wpt>
	<wpt lat="52.56" lon="12.25">
		<name>10267 - KYRITZ</name>
	</wpt>
	<wpt lat="53.31" lon="12.40">
		<name>10268 - WAREN</name>
	</wpt>
	<wpt lat="52.54" lon="12.49">
		<name>10270 - NEURUPPIN</name>
	</wpt>
	<wpt lat="52.57" lon="12.51">
		<name>10271 - NEURUPPIN-ALT</name>
	</wpt>
	<wpt lat="53.11" lon="12.31">
		<name>10272 - WITTSTOCK</name>
	</wpt>
	<wpt lat="53.44" lon="12.56">
		<name>10273 - BASEPOHL</name>
	</wpt>
	<wpt lat="53.09" lon="13.02">
		<name>10277 - NEUGLOBSOW</name>
	</wpt>
	<wpt lat="53.33" lon="13.12">
		<name>10280 - NEUBRANDENBUR</name>
	</wpt>
	<wpt lat="53.36" lon="13.18">
		<name>10281 - TROLLENHAGEN</name>
	</wpt>
	<wpt lat="53.19" lon="13.25">
		<name>10282 - FELDBERG/MECK</name>
	</wpt>
	<wpt lat="53.19" lon="13.56">
		<name>10289 - GRUENOW</name>
	</wpt>
	<wpt lat="53.02" lon="14.00">
		<name>10291 - ANGERMUENDE</name>
	</wpt>
	<wpt lat="52.31" lon="7.25">
		<name>10303 - LINGEN-BACCUM</name>
	</wpt>
	<wpt lat="52.18" lon="7.23">
		<name>10306 - RHEINE-BENTLA</name>
	</wpt>
	<wpt lat="52.33" lon="7.10">
		<name>10308 - NORDHORN</name>
	</wpt>
	<wpt lat="52.05" lon="6.56">
		<name>10309 - AHAUS</name>
	</wpt>
	<wpt lat="52.19" lon="8.10">
		<name>10312 - BELM</name>
	</wpt>
	<wpt lat="52.20" lon="7.33">
		<name>10314 - HOPSTEN</name>
	</wpt>
	<wpt lat="52.08" lon="7.42">
		<name>10315 - MUENSTER/OSNA</name>
	</wpt>
	<wpt lat="52.15" lon="8.03">
		<name>10317 - OSNABRUECK</name>
	</wpt>
	<wpt lat="51.55" lon="8.18">
		<name>10320 - GUETERSLOH</name>
	</wpt>
	<wpt lat="52.35" lon="8.21">
		<name>10321 - DIEPHOLZ</name>
	</wpt>
	<wpt lat="52.19" lon="8.51">
		<name>10324 - MINDEN</name>
	</wpt>
	<wpt lat="52.06" lon="8.45">
		<name>10325 - BAD SALZUFLEN</name>
	</wpt>
	<wpt lat="51.58" lon="8.33">
		<name>10326 - BIELEFELD</name>
	</wpt>
	<wpt lat="52.27" lon="9.26">
		<name>10334 - WUNSTORF</name>
	</wpt>
	<wpt lat="52.17" lon="9.05">
		<name>10335 - BUECKEBURG</name>
	</wpt>
	<wpt lat="52.28" lon="9.41">
		<name>10338 - HANNOVER</name>
	</wpt>
	<wpt lat="52.36" lon="10.01">
		<name>10343 - CELLE</name>
	</wpt>
	<wpt lat="52.17" lon="10.27">
		<name>10348 - BRAUNSCHWG.</name>
	</wpt>
	<wpt lat="52.10" lon="11.11">
		<name>10356 - UMMENDORF</name>
	</wpt>
	<wpt lat="52.31" lon="11.23">
		<name>10359 - GARDELEGEN</name>
	</wpt>
	<wpt lat="52.07" lon="11.35">
		<name>10361 - MAGDEBURG</name>
	</wpt>
	<wpt lat="52.23" lon="12.10">
		<name>10365 - GENTHIN</name>
	</wpt>
	<wpt lat="52.07" lon="12.28">
		<name>10368 - WIESENBURG</name>
	</wpt>
	<wpt lat="52.04" lon="13.30">
		<name>10376 - BARUTH</name>
	</wpt>
	<wpt lat="52.23" lon="13.04">
		<name>10379 - POTSDAM</name>
	</wpt>
	<wpt lat="52.28" lon="13.18">
		<name>10381 - BERLIN-DAHLEM</name>
	</wpt>
	<wpt lat="52.34" lon="13.19">
		<name>10382 - BERLIN-TEGEL</name>
	</wpt>
	<wpt lat="52.28" lon="13.24">
		<name>10384 - BERLIN-TEMPEL</name>
	</wpt>
	<wpt lat="52.23" lon="13.31">
		<name>10385 - BERLIN-BRANDE</name>
	</wpt>
	<wpt lat="52.31" lon="13.25">
		<name>10389 - BERLIN-ALEX.</name>
	</wpt>
	<wpt lat="52.13" lon="14.07">
		<name>10393 - LINDENBERG</name>
	</wpt>
	<wpt lat="52.33" lon="14.33">
		<name>10396 - MANSCHNOW</name>
	</wpt>
	<wpt lat="51.18" lon="6.46">
		<name>10400 - DUESSELDORF</name>
	</wpt>
	<wpt lat="51.12" lon="6.08">
		<name>10401 - BRUEGGEN</name>
	</wpt>
	<wpt lat="51.14" lon="6.30">
		<name>10403 - MOENCHENGLADB</name>
	</wpt>
	<wpt lat="51.44" lon="6.16">
		<name>10404 - KALKAR</name>
	</wpt>
	<wpt lat="51.36" lon="6.09">
		<name>10405 - NIEDERRHEIN</name>
	</wpt>
	<wpt lat="51.50" lon="6.32">
		<name>10406 - BOCHOLT</name>
	</wpt>
	<wpt lat="51.24" lon="6.58">
		<name>10410 - ESSEN</name>
	</wpt>
	<wpt lat="51.31" lon="7.37">
		<name>10416 - DORTMUND</name>
	</wpt>
	<wpt lat="51.15" lon="7.38">
		<name>10418 - LUEDENSCHEID</name>
	</wpt>
	<wpt lat="51.35" lon="7.53">
		<name>10424 - WERL</name>
	</wpt>
	<wpt lat="51.37" lon="8.37">
		<name>10426 - PADERBORN</name>
	</wpt>
	<wpt lat="51.11" lon="8.29">
		<name>10427 - K.ASTEN</name>
	</wpt>
	<wpt lat="51.47" lon="8.50">
		<name>10430 - BAD LIPPSPRIN</name>
	</wpt>
	<wpt lat="51.51" lon="9.19">
		<name>10432 - KOETERBERG</name>
	</wpt>
	<wpt lat="51.52" lon="9.16">
		<name>10433 - LUEDGE</name>
	</wpt>
	<wpt lat="51.30" lon="9.07">
		<name>10435 - WARBURG</name>
	</wpt>
	<wpt lat="51.18" lon="9.27">
		<name>10438 - KASSEL</name>
	</wpt>
	<wpt lat="51.07" lon="9.17">
		<name>10439 - FRITZLAR</name>
	</wpt>
	<wpt lat="51.17" lon="9.22">
		<name>10441 - SCHAUENBURG-E</name>
	</wpt>
	<wpt lat="51.58" lon="9.48">
		<name>10442 - ALFELD</name>
	</wpt>
	<wpt lat="51.30" lon="9.57">
		<name>10444 - GOETTINGEN</name>
	</wpt>
	<wpt lat="51.23" lon="10.19">
		<name>10449 - LEINEFELDE</name>
	</wpt>
	<wpt lat="51.43" lon="10.36">
		<name>10452 - BRAUNLAGE</name>
	</wpt>
	<wpt lat="51.48" lon="10.37">
		<name>10453 - BROCKEN</name>
	</wpt>
	<wpt lat="51.51" lon="10.46">
		<name>10454 - WERNIGERODE</name>
	</wpt>
	<wpt lat="51.51" lon="11.25">
		<name>10457 - COCHSTEDT</name>
	</wpt>
	<wpt lat="51.39" lon="11.08">
		<name>10458 - HARZGERODE</name>
	</wpt>
	<wpt lat="51.22" lon="11.17">
		<name>10460 - ARTERN</name>
	</wpt>
	<wpt lat="51.31" lon="11.57">
		<name>10466 - HALLE</name>
	</wpt>
	<wpt lat="51.25" lon="12.14">
		<name>10469 - LEIPZIG/SCHKE</name>
	</wpt>
	<wpt lat="51.19" lon="12.25">
		<name>10471 - LEIPZIG</name>
	</wpt>
	<wpt lat="51.53" lon="12.38">
		<name>10474 - WITTENBERG</name>
	</wpt>
	<wpt lat="51.46" lon="13.11">
		<name>10476 - HOLZDORF</name>
	</wpt>
	<wpt lat="51.18" lon="13.05">
		<name>10480 - OSCHATZ</name>
	</wpt>
	<wpt lat="51.03" lon="13.44">
		<name>10487 - DRESDEN-STADT</name>
	</wpt>
	<wpt lat="51.08" lon="13.45">
		<name>10488 - DRESDEN/FLUGH</name>
	</wpt>
	<wpt lat="51.39" lon="13.34">
		<name>10490 - DOBERLUG-KIRC</name>
	</wpt>
	<wpt lat="51.46" lon="14.17">
		<name>10492 - COTTBUS/FLUGP</name>
	</wpt>
	<wpt lat="51.40" lon="14.38">
		<name>10493 - PRESCHEN</name>
	</wpt>
	<wpt lat="51.27" lon="14.15">
		<name>10495 - HOYERSWERDA</name>
	</wpt>
	<wpt lat="51.47" lon="14.19">
		<name>10496 - COTTBUS</name>
	</wpt>
	<wpt lat="51.10" lon="14.57">
		<name>10499 - GOERLITZ</name>
	</wpt>
	<wpt lat="50.58" lon="6.03">
		<name>10500 - GEILENKIRCHEN</name>
	</wpt>
	<wpt lat="50.47" lon="6.06">
		<name>10501 - AACHEN</name>
	</wpt>
	<wpt lat="50.50" lon="6.40">
		<name>10502 - NOERVENICH</name>
	</wpt>
	<wpt lat="50.48" lon="6.02">
		<name>10505 - AACHEN-ORSBAC</name>
	</wpt>
	<wpt lat="50.22" lon="6.52">
		<name>10506 - NUERBURG-BARW</name>
	</wpt>
	<wpt lat="50.20" lon="6.57">
		<name>10510 - NUERBURG</name>
	</wpt>
	<wpt lat="50.52" lon="7.10">
		<name>10513 - KOELN/BONN</name>
	</wpt>
	<wpt lat="50.22" lon="7.19">
		<name>10514 - MENDIG</name>
	</wpt>
	<wpt lat="50.25" lon="7.35">
		<name>10515 - KOBLENZ-BEND.</name>
	</wpt>
	<wpt lat="50.22" lon="7.35">
		<name>10516 - KO-FALKENST.K</name>
	</wpt>
	<wpt lat="50.42" lon="7.09">
		<name>10517 - BONN-FRIESDOR</name>
	</wpt>
	<wpt lat="50.44" lon="7.11">
		<name>10519 - BONN-ROLEBER</name>
	</wpt>
	<wpt lat="50.26" lon="7.26">
		<name>10520 - ANDERNACH</name>
	</wpt>
	<wpt lat="50.56" lon="8.12">
		<name>10521 - ROTHAARGEBIRG</name>
	</wpt>
	<wpt lat="50.39" lon="6.47">
		<name>10522 - EUSKIRCHEN</name>
	</wpt>
	<wpt lat="50.40" lon="7.58">
		<name>10526 - B.MARIENBG.</name>
	</wpt>
	<wpt lat="50.36" lon="8.38">
		<name>10532 - GIESSEN</name>
	</wpt>
	<wpt lat="50.31" lon="9.13">
		<name>10534 - HOHERODSKOPF</name>
	</wpt>
	<wpt lat="50.49" lon="9.08">
		<name>10535 - WAHLEN</name>
	</wpt>
	<wpt lat="50.33" lon="9.39">
		<name>10536 - FULDA</name>
	</wpt>
	<wpt lat="50.45" lon="9.01">
		<name>10537 - NEU-ULRICHSTE</name>
	</wpt>
	<wpt lat="51.00" lon="10.22">
		<name>10540 - EISENACH</name>
	</wpt>
	<wpt lat="50.51" lon="9.44">
		<name>10542 - BAD HERSFELD</name>
	</wpt>
	<wpt lat="50.30" lon="9.56">
		<name>10544 - WASSERKUPPE</name>
	</wpt>
	<wpt lat="50.38" lon="10.09">
		<name>10546 - KALTENNORDHEI</name>
	</wpt>
	<wpt lat="50.34" lon="10.23">
		<name>10548 - MEININGEN</name>
	</wpt>
	<wpt lat="50.39" lon="10.46">
		<name>10552 - SCHMUECKE</name>
	</wpt>
	<wpt lat="50.59" lon="10.58">
		<name>10554 - ERFURT</name>
	</wpt>
	<wpt lat="50.59" lon="11.19">
		<name>10555 - WEIMAR</name>
	</wpt>
	<wpt lat="50.30" lon="11.08">
		<name>10557 - NEUHAUS A.R.</name>
	</wpt>
	<wpt lat="50.23" lon="11.11">
		<name>10558 - SONNEBERG</name>
	</wpt>
	<wpt lat="50.34" lon="11.48">
		<name>10564 - SCHLEIZ</name>
	</wpt>
	<wpt lat="51.05" lon="11.56">
		<name>10565 - OSTERFELD</name>
	</wpt>
	<wpt lat="50.53" lon="12.08">
		<name>10567 - GERA</name>
	</wpt>
	<wpt lat="50.29" lon="12.08">
		<name>10569 - PLAUEN</name>
	</wpt>
	<wpt lat="50.26" lon="12.37">
		<name>10574 - CARLSFELD</name>
	</wpt>
	<wpt lat="50.36" lon="12.43">
		<name>10575 - AUE</name>
	</wpt>
	<wpt lat="50.47" lon="12.52">
		<name>10577 - CHEMNITZ</name>
	</wpt>
	<wpt lat="50.26" lon="12.57">
		<name>10578 - FICHTELBERG</name>
	</wpt>
	<wpt lat="50.39" lon="13.09">
		<name>10579 - MARIENBERG</name>
	</wpt>
	<wpt lat="50.44" lon="13.45">
		<name>10582 - ZINNWALD-G.</name>
	</wpt>
	<wpt lat="50.56" lon="14.13">
		<name>10591 - LICHTENHAIN</name>
	</wpt>
	<wpt lat="49.45" lon="6.40">
		<name>10609 - TRIER</name>
	</wpt>
	<wpt lat="50.10" lon="7.04">
		<name>10613 - BUECHEL</name>
	</wpt>
	<wpt lat="49.46" lon="7.03">
		<name>10615 - DEUSELBACH</name>
	</wpt>
	<wpt lat="49.57" lon="7.16">
		<name>10616 - HAHN</name>
	</wpt>
	<wpt lat="49.58" lon="7.07">
		<name>10617 - TRABEN-TRARBA</name>
	</wpt>
	<wpt lat="49.42" lon="7.20">
		<name>10618 - IDAR-OBERSTEI</name>
	</wpt>
	<wpt lat="49.37" lon="7.21">
		<name>10619 - BAUMHOLDER</name>
	</wpt>
	<wpt lat="49.59" lon="7.57">
		<name>10628 - GEISENHEIM</name>
	</wpt>
	<wpt lat="50.03" lon="8.20">
		<name>10633 - WIESBADEN</name>
	</wpt>
	<wpt lat="50.13" lon="8.27">
		<name>10635 - KL.FELDBG./TS</name>
	</wpt>
	<wpt lat="50.03" lon="8.36">
		<name>10637 - FRANKFURT/M</name>
	</wpt>
	<wpt lat="50.07" lon="8.44">
		<name>10640 - OFFENBACH</name>
	</wpt>
	<wpt lat="50.05" lon="8.47">
		<name>10641 - OFFENBACH-WET</name>
	</wpt>
	<wpt lat="49.54" lon="9.26">
		<name>10645 - BREITSOL</name>
	</wpt>
	<wpt lat="50.01" lon="9.25">
		<name>10646 - NEUHUETTEN/SP</name>
	</wpt>
	<wpt lat="49.43" lon="9.06">
		<name>10648 - MICHELSTADT-V</name>
	</wpt>
	<wpt lat="49.46" lon="9.58">
		<name>10655 - WUERZBURG</name>
	</wpt>
	<wpt lat="50.12" lon="10.05">
		<name>10658 - KISSINGEN</name>
	</wpt>
	<wpt lat="50.17" lon="10.59">
		<name>10671 - COBURG</name>
	</wpt>
	<wpt lat="49.53" lon="10.55">
		<name>10675 - BAMBERG</name>
	</wpt>
	<wpt lat="49.59" lon="11.38">
		<name>10677 - BAYREUTH</name>
	</wpt>
	<wpt lat="50.17" lon="11.51">
		<name>10684 - HOF/FLUGHAFEN</name>
	</wpt>
	<wpt lat="50.19" lon="11.53">
		<name>10685 - HOF</name>
	</wpt>
	<wpt lat="50.02" lon="11.58">
		<name>10686 - WUNSIEDEL-SCH</name>
	</wpt>
	<wpt lat="49.40" lon="12.11">
		<name>10688 - WEIDEN</name>
	</wpt>
	<wpt lat="49.16" lon="6.41">
		<name>10704 - BERUS</name>
	</wpt>
	<wpt lat="49.29" lon="7.03">
		<name>10706 - THOLEY</name>
	</wpt>
	<wpt lat="49.13" lon="7.07">
		<name>10708 - SAARBRUECKEN</name>
	</wpt>
	<wpt lat="49.13" lon="7.24">
		<name>10714 - ZWEIBRUECKEN</name>
	</wpt>
	<wpt lat="48.47" lon="8.05">
		<name>10722 - KARLSR./BADEN</name>
	</wpt>
	<wpt lat="49.23" lon="8.07">
		<name>10724 - WEINBIET</name>
	</wpt>
	<wpt lat="49.02" lon="8.22">
		<name>10727 - KARLSRUHE</name>
	</wpt>
	<wpt lat="49.31" lon="8.33">
		<name>10729 - MANNHEIM</name>
	</wpt>
	<wpt lat="48.58" lon="8.19">
		<name>10731 - RHEINSTETTEN</name>
	</wpt>
	<wpt lat="49.17" lon="8.55">
		<name>10733 - WAIBSTADT</name>
	</wpt>
	<wpt lat="49.15" lon="8.53">
		<name>10735 - SINSHEIM</name>
	</wpt>
	<wpt lat="48.58" lon="8.52">
		<name>10736 - MUEHLACKER</name>
	</wpt>
	<wpt lat="48.41" lon="9.13">
		<name>10738 - STUTTGART-ECH</name>
	</wpt>
	<wpt lat="48.50" lon="9.12">
		<name>10739 - STUTTGART-SCH</name>
	</wpt>
	<wpt lat="49.13" lon="9.31">
		<name>10742 - OEHRINGEN</name>
	</wpt>
	<wpt lat="49.24" lon="9.58">
		<name>10743 - NIEDERSTETTEN</name>
	</wpt>
	<wpt lat="48.55" lon="9.41">
		<name>10747 - KAISERSBACH-C</name>
	</wpt>
	<wpt lat="49.19" lon="10.38">
		<name>10755 - ANSBACH</name>
	</wpt>
	<wpt lat="49.10" lon="10.22">
		<name>10756 - FEUCHTWANGEN</name>
	</wpt>
	<wpt lat="49.01" lon="10.56">
		<name>10761 - WEISSENBURG-E</name>
	</wpt>
	<wpt lat="49.30" lon="11.03">
		<name>10763 - NUERNBERG</name>
	</wpt>
	<wpt lat="49.13" lon="11.06">
		<name>10765 - ROTH</name>
	</wpt>
	<wpt lat="49.26" lon="11.54">
		<name>10771 - KUEMMERSBRUCK</name>
	</wpt>
	<wpt lat="49.02" lon="12.06">
		<name>10776 - REGENSBURG</name>
	</wpt>
	<wpt lat="48.57" lon="11.26">
		<name>10777 - GELBELSEE</name>
	</wpt>
	<wpt lat="49.23" lon="12.41">
		<name>10782 - WALDMUENCHEN</name>
	</wpt>
	<wpt lat="48.50" lon="12.34">
		<name>10788 - STRAUBING</name>
	</wpt>
	<wpt lat="49.07" lon="13.08">
		<name>10791 - GR.ARBER</name>
	</wpt>
	<wpt lat="49.02" lon="13.14">
		<name>10796 - ZWIESEL</name>
	</wpt>
	<wpt lat="48.01" lon="7.50">
		<name>10803 - FREIBURG</name>
	</wpt>
	<wpt lat="48.22" lon="7.50">
		<name>10805 - LAHR</name>
	</wpt>
	<wpt lat="48.27" lon="8.25">
		<name>10815 - FREUDENST.</name>
	</wpt>
	<wpt lat="48.07" lon="8.45">
		<name>10818 - KLIPPENECK</name>
	</wpt>
	<wpt lat="48.11" lon="9.00">
		<name>10827 - MESSSTETTEN</name>
	</wpt>
	<wpt lat="48.06" lon="9.15">
		<name>10828 - SIGMARINGEN</name>
	</wpt>
	<wpt lat="48.40" lon="9.52">
		<name>10836 - STOETTEN</name>
	</wpt>
	<wpt lat="48.13" lon="9.55">
		<name>10837 - LAUPHEIM</name>
	</wpt>
	<wpt lat="48.23" lon="9.57">
		<name>10838 - ULM</name>
	</wpt>
	<wpt lat="48.27" lon="9.55">
		<name>10840 - ULM-MAEHRINGE</name>
	</wpt>
	<wpt lat="48.47" lon="10.43">
		<name>10850 - HARBURG</name>
	</wpt>
	<wpt lat="48.26" lon="10.56">
		<name>10852 - AUGSBURG</name>
	</wpt>
	<wpt lat="48.43" lon="11.13">
		<name>10853 - NEUBURG/DONAU</name>
	</wpt>
	<wpt lat="48.11" lon="10.51">
		<name>10856 - LECHFELD</name>
	</wpt>
	<wpt lat="48.04" lon="10.54">
		<name>10857 - LANDSBERG</name>
	</wpt>
	<wpt lat="48.12" lon="11.16">
		<name>10858 - FUERSTENFELDB</name>
	</wpt>
	<wpt lat="48.43" lon="11.32">
		<name>10860 - INGOLSTADT</name>
	</wpt>
	<wpt lat="48.24" lon="11.42">
		<name>10863 - WEIHENSTEPHAN</name>
	</wpt>
	<wpt lat="48.10" lon="11.32">
		<name>10865 - MUENCHEN STAD</name>
	</wpt>
	<wpt lat="48.22" lon="11.48">
		<name>10870 - MUENCHEN-FL.</name>
	</wpt>
	<wpt lat="48.40" lon="12.32">
		<name>10872 - GOTTFRIEDING</name>
	</wpt>
	<wpt lat="48.17" lon="12.30">
		<name>10875 - MUEHLDORF</name>
	</wpt>
	<wpt lat="48.35" lon="13.28">
		<name>10893 - PASSAU</name>
	</wpt>
	<wpt lat="48.33" lon="13.21">
		<name>10895 - FUERSTENZELL</name>
	</wpt>
	<wpt lat="47.53" lon="8.00">
		<name>10908 - FELDBERG/S.</name>
	</wpt>
	<wpt lat="47.41" lon="9.11">
		<name>10929 - KONSTANZ</name>
	</wpt>
	<wpt lat="47.40" lon="9.31">
		<name>10935 - FRIEDRICHSHAF</name>
	</wpt>
	<wpt lat="47.48" lon="10.02">
		<name>10945 - LEUTKIRCH-HER</name>
	</wpt>
	<wpt lat="47.43" lon="10.20">
		<name>10946 - KEMPTEN</name>
	</wpt>
	<wpt lat="47.59" lon="10.14">
		<name>10947 - MEMMINGEN</name>
	</wpt>
	<wpt lat="47.24" lon="10.17">
		<name>10948 - OBERSTDORF</name>
	</wpt>
	<wpt lat="47.50" lon="10.52">
		<name>10954 - ALTENSTADT</name>
	</wpt>
	<wpt lat="47.25" lon="10.59">
		<name>10961 - ZUGSPITZE</name>
	</wpt>
	<wpt lat="47.48" lon="11.01">
		<name>10962 - HOHENPEISS.BG</name>
	</wpt>
	<wpt lat="47.29" lon="11.04">
		<name>10963 - GARMISCH</name>
	</wpt>
	<wpt lat="47.42" lon="12.01">
		<name>10980 - WENDELSTEIN</name>
	</wpt>
	<wpt lat="47.53" lon="12.32">
		<name>10982 - CHIEMING</name>
	</wpt>
	<wpt lat="48.06" lon="13.40">
		<name>11001 - WOLFSEGG</name>
	</wpt>
	<wpt lat="48.34" lon="14.00">
		<name>11008 - ROHRBACH</name>
	</wpt>
	<wpt lat="48.14" lon="14.11">
		<name>11010 - LINZ FL.</name>
	</wpt>
	<wpt lat="48.04" lon="14.08">
		<name>11012 - KREMSMUENSTER</name>
	</wpt>
	<wpt lat="48.30" lon="14.30">
		<name>11015 - FREISTADT</name>
	</wpt>
	<wpt lat="48.07" lon="14.54">
		<name>11018 - AMSTETTEN</name>
	</wpt>
	<wpt lat="48.41" lon="15.22">
		<name>11019 - ALLENSTEIG</name>
	</wpt>
	<wpt lat="48.37" lon="15.12">
		<name>11020 - ZWETTL</name>
	</wpt>
	<wpt lat="48.57" lon="15.02">
		<name>11021 - LITSCHAU</name>
	</wpt>
	<wpt lat="48.46" lon="15.56">
		<name>11022 - RETZ</name>
	</wpt>
	<wpt lat="48.12" lon="15.37">
		<name>11028 - ST. POELTEN</name>
	</wpt>
	<wpt lat="48.19" lon="16.07">
		<name>11030 - TULLN</name>
	</wpt>
	<wpt lat="48.40" lon="16.38">
		<name>11032 - POYSDORF</name>
	</wpt>
	<wpt lat="48.12" lon="16.22">
		<name>11034 - WIEN/CITY</name>
	</wpt>
	<wpt lat="48.15" lon="16.22">
		<name>11035 - WIEN/HOHE WAR</name>
	</wpt>
	<wpt lat="48.07" lon="16.34">
		<name>11036 - WIEN FL.</name>
	</wpt>
	<wpt lat="48.08" lon="16.25">
		<name>11040 - WIEN/UNTERLAA</name>
	</wpt>
	<wpt lat="48.13" lon="13.29">
		<name>11053 - RIED IM INNKR</name>
	</wpt>
	<wpt lat="48.28" lon="13.26">
		<name>11055 - SCHAERDING</name>
	</wpt>
	<wpt lat="48.18" lon="14.17">
		<name>11060 - LINZ</name>
	</wpt>
	<wpt lat="48.25" lon="15.37">
		<name>11070 - KREMS</name>
	</wpt>
	<wpt lat="48.28" lon="15.42">
		<name>11075 - LANGENLOIS</name>
	</wpt>
	<wpt lat="48.02" lon="15.35">
		<name>11078 - LILIENFELD/TA</name>
	</wpt>
	<wpt lat="48.02" lon="16.17">
		<name>11082 - GUMPOLDSKIRCH</name>
	</wpt>
	<wpt lat="47.30" lon="9.45">
		<name>11101 - BREGENZ</name>
	</wpt>
	<wpt lat="47.16" lon="9.37">
		<name>11105 - FELDKIRCH</name>
	</wpt>
	<wpt lat="47.08" lon="10.16">
		<name>11109 - ST.ANTON AM A</name>
	</wpt>
	<wpt lat="47.08" lon="10.14">
		<name>11110 - GALZIG</name>
	</wpt>
	<wpt lat="47.09" lon="10.34">
		<name>11112 - LANDECK</name>
	</wpt>
	<wpt lat="46.53" lon="10.30">
		<name>11113 - NAUDERS</name>
	</wpt>
	<wpt lat="47.16" lon="11.21">
		<name>11120 - INNSBRUCK FL.</name>
	</wpt>
	<wpt lat="46.52" lon="11.01">
		<name>11127 - OBERGURGL</name>
	</wpt>
	<wpt lat="47.07" lon="11.26">
		<name>11128 - BRENNER</name>
	</wpt>
	<wpt lat="47.35" lon="12.10">
		<name>11130 - KUFSTEIN</name>
	</wpt>
	<wpt lat="47.31" lon="12.27">
		<name>11132 - ST.JOHANN/TIR</name>
	</wpt>
	<wpt lat="47.13" lon="12.02">
		<name>11134 - GERLOS</name>
	</wpt>
	<wpt lat="47.08" lon="12.38">
		<name>11138 - ALPINZENTRUM</name>
	</wpt>
	<wpt lat="47.35" lon="12.42">
		<name>11140 - LOFER</name>
	</wpt>
	<wpt lat="47.24" lon="13.13">
		<name>11141 - BISCHOFSHOFEN</name>
	</wpt>
	<wpt lat="47.18" lon="12.47">
		<name>11143 - ZELL A.SEE FL</name>
	</wpt>
	<wpt lat="47.20" lon="12.48">
		<name>11144 - ZELL A.SEE</name>
	</wpt>
	<wpt lat="47.07" lon="13.08">
		<name>11145 - BAD GASTEIN</name>
	</wpt>
	<wpt lat="47.03" lon="12.57">
		<name>11146 - SONNBLICK</name>
	</wpt>
	<wpt lat="47.06" lon="13.39">
		<name>11148 - ST.MICHAEL/LU</name>
	</wpt>
	<wpt lat="47.15" lon="13.34">
		<name>11149 - OBERTAUERN</name>
	</wpt>
	<wpt lat="47.48" lon="13.00">
		<name>11150 - SALZBURG FL.</name>
	</wpt>
	<wpt lat="47.54" lon="13.47">
		<name>11154 - GMUNDEN</name>
	</wpt>
	<wpt lat="47.49" lon="13.43">
		<name>11155 - FEUERKOGEL</name>
	</wpt>
	<wpt lat="47.43" lon="13.38">
		<name>11156 - BAD ISCHL</name>
	</wpt>
	<wpt lat="47.32" lon="14.08">
		<name>11157 - AIGEN/ENNS</name>
	</wpt>
	<wpt lat="47.12" lon="14.45">
		<name>11165 - ZELTWEG</name>
	</wpt>
	<wpt lat="47.51" lon="15.04">
		<name>11170 - LUNZ</name>
	</wpt>
	<wpt lat="47.46" lon="15.19">
		<name>11172 - MARIAZELL</name>
	</wpt>
	<wpt lat="47.27" lon="15.39">
		<name>11173 - FISCHBACH</name>
	</wpt>
	<wpt lat="47.20" lon="15.00">
		<name>11174 - ST.MICHAEL</name>
	</wpt>
	<wpt lat="47.28" lon="15.20">
		<name>11176 - KAPFENBERG</name>
	</wpt>
	<wpt lat="47.50" lon="16.13">
		<name>11182 - WIENER NEUSTA</name>
	</wpt>
	<wpt lat="47.51" lon="16.32">
		<name>11190 - EISENSTADT</name>
	</wpt>
	<wpt lat="47.12" lon="16.20">
		<name>11192 - KLEINZICKEN</name>
	</wpt>
	<wpt lat="47.57" lon="16.51">
		<name>11194 - NEUSIEDL AM S</name>
	</wpt>
	<wpt lat="46.45" lon="12.25">
		<name>11201 - SILLIAN</name>
	</wpt>
	<wpt lat="46.50" lon="12.48">
		<name>11204 - LIENZ</name>
	</wpt>
	<wpt lat="46.59" lon="13.11">
		<name>11210 - MALLNITZ</name>
	</wpt>
	<wpt lat="46.36" lon="13.40">
		<name>11212 - VILL.ALPE</name>
	</wpt>
	<wpt lat="46.37" lon="13.52">
		<name>11213 - VILLACH</name>
	</wpt>
	<wpt lat="47.04" lon="15.05">
		<name>11221 - KOEFLACH</name>
	</wpt>
	<wpt lat="46.39" lon="14.20">
		<name>11231 - KLAGENFURT FL</name>
	</wpt>
	<wpt lat="46.34" lon="14.46">
		<name>11232 - FEISTRITZ</name>
	</wpt>
	<wpt lat="47.00" lon="15.26">
		<name>11240 - GRAZ FL.</name>
	</wpt>
	<wpt lat="46.52" lon="15.54">
		<name>11245 - GLEICHENBERG</name>
	</wpt>
	<wpt lat="46.41" lon="15.59">
		<name>11248 - BAD RADKERSBU</name>
	</wpt>
	<wpt lat="47.00" lon="12.27">
		<name>11252 - VIRGEN (OSTTI</name>
	</wpt>
	<wpt lat="46.41" lon="13.00">
		<name>11255 - KOETSCHACH</name>
	</wpt>
	<wpt lat="46.44" lon="13.05">
		<name>11270 - DELLACH IM DR</name>
	</wpt>
	<wpt lat="46.47" lon="13.29">
		<name>11272 - SPITTAL/DRAU</name>
	</wpt>
	<wpt lat="47.07" lon="14.11">
		<name>11280 - MURAU</name>
	</wpt>
	<wpt lat="46.49" lon="15.14">
		<name>11285 - DEUTSCHLANDSB</name>
	</wpt>
	<wpt lat="47.05" lon="15.27">
		<name>11290 - GRAZ (UNIVERS</name>
	</wpt>
	<wpt lat="47.05" lon="15.35">
		<name>11292 - LASSNITZHOEHE</name>
	</wpt>
	<wpt lat="46.47" lon="15.33">
		<name>11295 - LEIBNITZ</name>
	</wpt>
	<wpt lat="47.15" lon="10.11">
		<name>11308 - WARTH</name>
	</wpt>
	<wpt lat="46.59" lon="10.19">
		<name>11310 - ISCHGL</name>
	</wpt>
	<wpt lat="46.58" lon="10.11">
		<name>11312 - GALTUER</name>
	</wpt>
	<wpt lat="47.30" lon="10.43">
		<name>11314 - REUTTE AUTOM.</name>
	</wpt>
	<wpt lat="47.10" lon="11.51">
		<name>11322 - MAYRHOFEN</name>
	</wpt>
	<wpt lat="47.20" lon="12.44">
		<name>11340 - SCHMITTENHOEH</name>
	</wpt>
	<wpt lat="47.47" lon="13.03">
		<name>11350 - SALZBURG</name>
	</wpt>
	<wpt lat="47.38" lon="13.37">
		<name>11354 - BAD GOISERN</name>
	</wpt>
	<wpt lat="47.44" lon="14.20">
		<name>11355 - WINDISCHGARST</name>
	</wpt>
	<wpt lat="47.44" lon="13.27">
		<name>11357 - ST. WOLFGANG</name>
	</wpt>
	<wpt lat="47.42" lon="15.50">
		<name>11380 - REICHENAU/RAX</name>
	</wpt>
	<wpt lat="47.17" lon="15.59">
		<name>11390 - HARTBERG</name>
	</wpt>
	<wpt lat="50.04" lon="12.23">
		<name>11406 - EGER</name>
	</wpt>
	<wpt lat="50.12" lon="12.55">
		<name>11414 - KARLSBAD</name>
	</wpt>
	<wpt lat="49.40" lon="12.41">
		<name>11423 - PRIMDA</name>
	</wpt>
	<wpt lat="50.23" lon="13.20">
		<name>11438 - TUSIMICE</name>
	</wpt>
	<wpt lat="49.39" lon="13.16">
		<name>11448 - PILSEN</name>
	</wpt>
	<wpt lat="49.45" lon="13.21">
		<name>11450 - PLZEN (AUT. S</name>
	</wpt>
	<wpt lat="49.04" lon="13.37">
		<name>11457 - CHURANOV</name>
	</wpt>
	<wpt lat="49.28" lon="13.50">
		<name>11487 - KOCELOVICE</name>
	</wpt>
	<wpt lat="50.41" lon="14.02">
		<name>11502 - AUSSIG</name>
	</wpt>
	<wpt lat="50.28" lon="14.10">
		<name>11509 - DOKSANY</name>
	</wpt>
	<wpt lat="50.06" lon="14.15">
		<name>11518 - PRAG FL.</name>
	</wpt>
	<wpt lat="50.01" lon="14.27">
		<name>11520 - PRAG</name>
	</wpt>
	<wpt lat="49.12" lon="14.20">
		<name>11538 - TEMELIN</name>
	</wpt>
	<wpt lat="50.07" lon="14.32">
		<name>11567 - PRAHA (KBELI</name>
	</wpt>
	<wpt lat="50.46" lon="15.01">
		<name>11603 - LIBEREC</name>
	</wpt>
	<wpt lat="49.56" lon="15.23">
		<name>11624 - CASLAV</name>
	</wpt>
	<wpt lat="49.35" lon="15.05">
		<name>11628 - KRAMOLIN-KOSE</name>
	</wpt>
	<wpt lat="50.41" lon="15.44">
		<name>11643 - PEC POD SNEZK</name>
	</wpt>
	<wpt lat="50.01" lon="15.44">
		<name>11652 - PARDUBICE</name>
	</wpt>
	<wpt lat="49.35" lon="15.46">
		<name>11659 - PRIBYSLAW</name>
	</wpt>
	<wpt lat="49.59" lon="16.25">
		<name>11679 - USTI NAD ORLI</name>
	</wpt>
	<wpt lat="49.44" lon="16.02">
		<name>11683 - SVRATOUCH</name>
	</wpt>
	<wpt lat="49.10" lon="16.07">
		<name>11692 - NAMEST NAD OS</name>
	</wpt>
	<wpt lat="49.06" lon="16.08">
		<name>11693 - DUKOVANY</name>
	</wpt>
	<wpt lat="48.53" lon="16.05">
		<name>11698 - KUCHAROVICE</name>
	</wpt>
	<wpt lat="49.39" lon="16.57">
		<name>11710 - LUKA</name>
	</wpt>
	<wpt lat="49.09" lon="16.42">
		<name>11723 - BRUENN</name>
	</wpt>
	<wpt lat="49.19" lon="17.34">
		<name>11774 - HOLESOV</name>
	</wpt>
	<wpt lat="49.41" lon="18.07">
		<name>11782 - OSTRAVA/MOSNO</name>
	</wpt>
	<wpt lat="49.33" lon="18.27">
		<name>11787 - LYSA HORA/RIE</name>
	</wpt>
	<wpt lat="48.10" lon="17.12">
		<name>11816 - BRATISLAVA</name>
	</wpt>
	<wpt lat="48.29" lon="17.40">
		<name>11819 - JASLOVSKE BOH</name>
	</wpt>
	<wpt lat="48.37" lon="17.50">
		<name>11826 - PIESTANY</name>
	</wpt>
	<wpt lat="48.17" lon="18.08">
		<name>11855 - NITRA</name>
	</wpt>
	<wpt lat="48.17" lon="18.27">
		<name>11856 - MOCHOVCE</name>
	</wpt>
	<wpt lat="47.52" lon="18.12">
		<name>11858 - HURBANOVO</name>
	</wpt>
	<wpt lat="48.46" lon="18.35">
		<name>11867 - PRIEVIDZA</name>
	</wpt>
	<wpt lat="48.10" lon="18.52">
		<name>11880 - DUDINCE</name>
	</wpt>
	<wpt lat="48.39" lon="19.09">
		<name>11903 - SLIAC</name>
	</wpt>
	<wpt lat="48.20" lon="19.44">
		<name>11927 - LUCENEC</name>
	</wpt>
	<wpt lat="49.07" lon="20.05">
		<name>11933 - STREBSKE PLES</name>
	</wpt>
	<wpt lat="49.04" lon="20.15">
		<name>11934 - POPRAD/T.</name>
	</wpt>
	<wpt lat="48.51" lon="20.11">
		<name>11938 - TELGART</name>
	</wpt>
	<wpt lat="48.40" lon="21.13">
		<name>11968 - KOSICE</name>
	</wpt>
	<wpt lat="49.13" lon="21.39">
		<name>11976 - STROPKOV,TISI</name>
	</wpt>
	<wpt lat="48.40" lon="21.43">
		<name>11978 - MILHOSTOV</name>
	</wpt>
	<wpt lat="48.56" lon="22.00">
		<name>11993 - KAMENICA NAD</name>
	</wpt>
	<wpt lat="54.12" lon="16.10">
		<name>12105 - KOSZALIN</name>
	</wpt>
	<wpt lat="54.45" lon="17.32">
		<name>12120 - LEBA</name>
	</wpt>
	<wpt lat="54.36" lon="18.49">
		<name>12135 - HEL</name>
	</wpt>
	<wpt lat="54.23" lon="18.28">
		<name>12150 - DANZIG</name>
	</wpt>
	<wpt lat="54.10" lon="19.26">
		<name>12160 - ELBLAG</name>
	</wpt>
	<wpt lat="54.04" lon="21.22">
		<name>12185 - KETRZYN</name>
	</wpt>
	<wpt lat="54.08" lon="22.57">
		<name>12195 - SUWALKI</name>
	</wpt>
	<wpt lat="53.55" lon="14.14">
		<name>12200 - SWINEMUENDE</name>
	</wpt>
	<wpt lat="53.24" lon="14.37">
		<name>12205 - STETTIN</name>
	</wpt>
	<wpt lat="53.46" lon="15.25">
		<name>12210 - RESKO</name>
	</wpt>
	<wpt lat="53.08" lon="16.45">
		<name>12230 - PILA</name>
	</wpt>
	<wpt lat="53.42" lon="17.33">
		<name>12235 - CHOJNICE</name>
	</wpt>
	<wpt lat="53.02" lon="18.35">
		<name>12250 - TORUN</name>
	</wpt>
	<wpt lat="53.06" lon="20.22">
		<name>12270 - MLAWA</name>
	</wpt>
	<wpt lat="53.47" lon="21.35">
		<name>12280 - MIKOLAJKI</name>
	</wpt>
	<wpt lat="53.06" lon="23.10">
		<name>12295 - BIALYSTOK</name>
	</wpt>
	<wpt lat="52.44" lon="15.17">
		<name>12300 - GORZOW WLKP</name>
	</wpt>
	<wpt lat="52.21" lon="14.35">
		<name>12310 - SLUBICE</name>
	</wpt>
	<wpt lat="52.25" lon="16.50">
		<name>12330 - POSEN</name>
	</wpt>
	<wpt lat="52.22" lon="17.51">
		<name>12336 - POWIDZ</name>
	</wpt>
	<wpt lat="52.12" lon="18.40">
		<name>12345 - KOLO</name>
	</wpt>
	<wpt lat="52.35" lon="19.44">
		<name>12360 - PLOCK</name>
	</wpt>
	<wpt lat="52.10" lon="20.58">
		<name>12375 - WARSCHAU</name>
	</wpt>
	<wpt lat="52.15" lon="22.15">
		<name>12385 - SIEDLCE</name>
	</wpt>
	<wpt lat="52.05" lon="23.37">
		<name>12399 - TERESPOL</name>
	</wpt>
	<wpt lat="51.56" lon="15.32">
		<name>12400 - ZIELONA GORA</name>
	</wpt>
	<wpt lat="51.11" lon="16.13">
		<name>12415 - LEGNICA BARTO</name>
	</wpt>
	<wpt lat="51.50" lon="16.32">
		<name>12418 - LESZNO</name>
	</wpt>
	<wpt lat="51.06" lon="16.53">
		<name>12424 - WROCLAW II</name>
	</wpt>
	<wpt lat="51.47" lon="18.05">
		<name>12435 - KALISZ</name>
	</wpt>
	<wpt lat="51.13" lon="18.34">
		<name>12455 - WIELUN</name>
	</wpt>
	<wpt lat="51.44" lon="19.24">
		<name>12465 - LODZ</name>
	</wpt>
	<wpt lat="51.21" lon="19.52">
		<name>12469 - SULEJOW</name>
	</wpt>
	<wpt lat="51.34" lon="21.32">
		<name>12488 - KOZIENICE</name>
	</wpt>
	<wpt lat="51.13" lon="22.24">
		<name>12495 - LUBLIN RADAWI</name>
	</wpt>
	<wpt lat="50.54" lon="15.48">
		<name>12500 - JELENIA GORA</name>
	</wpt>
	<wpt lat="50.44" lon="15.44">
		<name>12510 - SNIEZKA</name>
	</wpt>
	<wpt lat="50.26" lon="16.37">
		<name>12520 - KLODZKO</name>
	</wpt>
	<wpt lat="50.40" lon="17.58">
		<name>12530 - OPOLE</name>
	</wpt>
	<wpt lat="50.04" lon="18.11">
		<name>12540 - RACIBORZ</name>
	</wpt>
	<wpt lat="50.49" lon="19.06">
		<name>12550 - CZESTOCHOWA</name>
	</wpt>
	<wpt lat="50.29" lon="19.05">
		<name>12555 - KATOWICE/PYRZ</name>
	</wpt>
	<wpt lat="50.14" lon="19.02">
		<name>12560 - KATOWICE</name>
	</wpt>
	<wpt lat="50.05" lon="19.48">
		<name>12566 - KRAKOW</name>
	</wpt>
	<wpt lat="50.49" lon="20.42">
		<name>12570 - KIELCE</name>
	</wpt>
	<wpt lat="50.06" lon="22.03">
		<name>12580 - RZESZOW-JASIO</name>
	</wpt>
	<wpt lat="50.42" lon="21.43">
		<name>12585 - SANDOMIERZ</name>
	</wpt>
	<wpt lat="49.48" lon="19.00">
		<name>12600 - BIELSKO-BIALA</name>
	</wpt>
	<wpt lat="49.18" lon="19.58">
		<name>12625 - ZAKOPANE</name>
	</wpt>
	<wpt lat="49.37" lon="20.42">
		<name>12660 - NOWY SACZ</name>
	</wpt>
	<wpt lat="49.28" lon="22.20">
		<name>12690 - LESKO</name>
	</wpt>
	<wpt lat="48.29" lon="20.32">
		<name>12766 - JOSVAFO</name>
	</wpt>
	<wpt lat="48.05" lon="20.46">
		<name>12772 - MISKOLC</name>
	</wpt>
	<wpt lat="47.41" lon="16.36">
		<name>12805 - SOPRON</name>
	</wpt>
	<wpt lat="47.53" lon="17.17">
		<name>12815 - MOSONMAGYAROV</name>
	</wpt>
	<wpt lat="47.43" lon="17.41">
		<name>12822 - GYOR</name>
	</wpt>
	<wpt lat="47.12" lon="17.30">
		<name>12825 - PAPA</name>
	</wpt>
	<wpt lat="47.04" lon="17.50">
		<name>12830 - VESZPREM</name>
	</wpt>
	<wpt lat="47.26" lon="19.16">
		<name>12839 - BUDAPEST/FERI</name>
	</wpt>
	<wpt lat="47.31" lon="19.02">
		<name>12840 - BUDAPEST</name>
	</wpt>
	<wpt lat="47.26" lon="19.11">
		<name>12843 - BUDAPEST/LORI</name>
	</wpt>
	<wpt lat="47.11" lon="18.37">
		<name>12846 - AGARD</name>
	</wpt>
	<wpt lat="47.29" lon="21.36">
		<name>12882 - DEBRECEN</name>
	</wpt>
	<wpt lat="46.55" lon="16.19">
		<name>12910 - SZENTGOTTHARD</name>
	</wpt>
	<wpt lat="46.41" lon="17.10">
		<name>12922 - SARMELLEK</name>
	</wpt>
	<wpt lat="46.27" lon="16.58">
		<name>12925 - NAGYKANIZSA</name>
	</wpt>
	<wpt lat="46.55" lon="18.03">
		<name>12935 - SIOFOK</name>
	</wpt>
	<wpt lat="46.00" lon="18.14">
		<name>12942 - PECS/POGANY</name>
	</wpt>
	<wpt lat="46.55" lon="19.45">
		<name>12970 - KECSKEMET</name>
	</wpt>
	<wpt lat="46.15" lon="20.06">
		<name>12982 - SZEGED</name>
	</wpt>
	<wpt lat="46.41" lon="21.10">
		<name>12992 - BEKESCSABA</name>
	</wpt>
	<wpt lat="45.20" lon="19.51">
		<name>13168 - NOVI SAD</name>
	</wpt>
	<wpt lat="44.33" lon="19.14">
		<name>13262 - LOZNICA</name>
	</wpt>
	<wpt lat="44.19" lon="19.55">
		<name>13269 - VALJEVO</name>
	</wpt>
	<wpt lat="44.49" lon="20.17">
		<name>13272 - BEOGRAD/SURCI</name>
	</wpt>
	<wpt lat="44.48" lon="20.28">
		<name>13274 - BELGRAD</name>
	</wpt>
	<wpt lat="44.02" lon="20.56">
		<name>13278 - KRAGUJEVAC</name>
	</wpt>
	<wpt lat="44.14" lon="22.33">
		<name>13295 - NEGOTIN</name>
	</wpt>
	<wpt lat="43.44" lon="19.43">
		<name>13367 - ZLATIBOR</name>
	</wpt>
	<wpt lat="43.42" lon="20.42">
		<name>13376 - KRALJEVO</name>
	</wpt>
	<wpt lat="43.17" lon="20.48">
		<name>13378 - KOPAONIK</name>
	</wpt>
	<wpt lat="43.20" lon="21.54">
		<name>13388 - NIS</name>
	</wpt>
	<wpt lat="42.59" lon="21.57">
		<name>13389 - LESKOVAC</name>
	</wpt>
	<wpt lat="42.27" lon="18.33">
		<name>13455 - HERCEGNOVI</name>
	</wpt>
	<wpt lat="42.24" lon="18.44">
		<name>13457 - TIVAT</name>
	</wpt>
	<wpt lat="42.46" lon="18.57">
		<name>13459 - NIKSIC</name>
	</wpt>
	<wpt lat="42.06" lon="19.05">
		<name>13461 - BAR</name>
	</wpt>
	<wpt lat="42.22" lon="19.15">
		<name>13462 - PODGORICA/GOL</name>
	</wpt>
	<wpt lat="42.26" lon="19.17">
		<name>13463 - PODGORICA</name>
	</wpt>
	<wpt lat="42.40" lon="20.18">
		<name>13473 - PEC</name>
	</wpt>
	<wpt lat="42.13" lon="20.44">
		<name>13477 - PRIZREN</name>
	</wpt>
	<wpt lat="42.39" lon="21.09">
		<name>13481 - PRISTINA</name>
	</wpt>
	<wpt lat="42.33" lon="21.55">
		<name>13489 - VRANJE</name>
	</wpt>
	<wpt lat="41.58" lon="21.39">
		<name>13586 - SKOPJE</name>
	</wpt>
	<wpt lat="42.06" lon="19.32">
		<name>13600 - SHKODRA</name>
	</wpt>
	<wpt lat="42.02" lon="20.25">
		<name>13610 - KUKES</name>
	</wpt>
	<wpt lat="41.18" lon="19.27">
		<name>13611 - DURRES</name>
	</wpt>
	<wpt lat="41.20" lon="19.47">
		<name>13615 - TIRANA</name>
	</wpt>
	<wpt lat="46.13" lon="14.29">
		<name>14014 - LJUBLJANA/BRN</name>
	</wpt>
	<wpt lat="46.29" lon="15.41">
		<name>14026 - MARIBOR/SLIVN</name>
	</wpt>
	<wpt lat="45.49" lon="15.58">
		<name>14236 - ZAGREB/GRIC</name>
	</wpt>
	<wpt lat="45.44" lon="16.04">
		<name>14241 - ZAGREB/PLESO</name>
	</wpt>
	<wpt lat="45.53" lon="17.12">
		<name>14256 - BILOGORA</name>
	</wpt>
	<wpt lat="45.30" lon="18.34">
		<name>14280 - OSIJEK-CEPIN</name>
	</wpt>
	<wpt lat="45.14" lon="13.36">
		<name>14301 - POREC</name>
	</wpt>
	<wpt lat="44.54" lon="13.55">
		<name>14307 - PULA</name>
	</wpt>
	<wpt lat="45.13" lon="14.35">
		<name>14317 - RIJEKA</name>
	</wpt>
	<wpt lat="44.33" lon="15.22">
		<name>14330 - GOSPIC</name>
	</wpt>
	<wpt lat="44.06" lon="15.21">
		<name>14431 - ZADAR</name>
	</wpt>
	<wpt lat="44.02" lon="16.12">
		<name>14442 - KNIN</name>
	</wpt>
	<wpt lat="43.32" lon="16.18">
		<name>14444 - SPLIT/RESNIK</name>
	</wpt>
	<wpt lat="43.31" lon="16.26">
		<name>14445 - SPLIT/MARJAN</name>
	</wpt>
	<wpt lat="42.34" lon="18.16">
		<name>14474 - DUBROVNIK</name>
	</wpt>
	<wpt lat="44.49" lon="15.53">
		<name>14528 - BIHAC</name>
	</wpt>
	<wpt lat="44.59" lon="16.45">
		<name>14536 - PRIJEDOR</name>
	</wpt>
	<wpt lat="44.46" lon="16.42">
		<name>14537 - SANSKI MOST</name>
	</wpt>
	<wpt lat="44.47" lon="17.13">
		<name>14542 - BANJA LUKA</name>
	</wpt>
	<wpt lat="44.21" lon="17.16">
		<name>14543 - JAJCE</name>
	</wpt>
	<wpt lat="44.04" lon="17.28">
		<name>14544 - BUGOJNO</name>
	</wpt>
	<wpt lat="44.13" lon="17.54">
		<name>14549 - ZENICA</name>
	</wpt>
	<wpt lat="44.44" lon="18.06">
		<name>14551 - DOBOJ</name>
	</wpt>
	<wpt lat="44.53" lon="18.26">
		<name>14554 - GRADACAC</name>
	</wpt>
	<wpt lat="44.33" lon="18.42">
		<name>14557 - TUZLA</name>
	</wpt>
	<wpt lat="43.50" lon="17.01">
		<name>14640 - LIVNO</name>
	</wpt>
	<wpt lat="43.21" lon="17.48">
		<name>14648 - MOSTAR</name>
	</wpt>
	<wpt lat="43.46" lon="18.02">
		<name>14650 - IVAN SEDLO</name>
	</wpt>
	<wpt lat="43.43" lon="18.16">
		<name>14652 - BJELASNICA</name>
	</wpt>
	<wpt lat="43.49" lon="18.20">
		<name>14653 - SARAJEWO</name>
	</wpt>
	<wpt lat="43.52" lon="18.26">
		<name>14654 - SARAJEVO-BEJE</name>
	</wpt>
	<wpt lat="43.10" lon="18.33">
		<name>14655 - GACKO</name>
	</wpt>
	<wpt lat="43.57" lon="18.49">
		<name>14658 - SOKOLAC</name>
	</wpt>
	<wpt lat="47.44" lon="26.39">
		<name>15020 - BOTOSANI</name>
	</wpt>
	<wpt lat="47.02" lon="21.54">
		<name>15080 - ORADEA</name>
	</wpt>
	<wpt lat="46.47" lon="23.34">
		<name>15120 - CLUJ-NAPOCA</name>
	</wpt>
	<wpt lat="46.32" lon="24.32">
		<name>15145 - TIRGU MURES</name>
	</wpt>
	<wpt lat="46.32" lon="26.55">
		<name>15150 - BACAU</name>
	</wpt>
	<wpt lat="46.08" lon="21.21">
		<name>15200 - ARAD</name>
	</wpt>
	<wpt lat="45.51" lon="24.59">
		<name>15235 - FAGARAS</name>
	</wpt>
	<wpt lat="45.46" lon="21.15">
		<name>15247 - TIMISOARA</name>
	</wpt>
	<wpt lat="45.48" lon="24.09">
		<name>15260 - SIBIU</name>
	</wpt>
	<wpt lat="45.31" lon="25.35">
		<name>15302 - PREDEAL</name>
	</wpt>
	<wpt lat="45.02" lon="21.41">
		<name>15338 - ORAVITA</name>
	</wpt>
	<wpt lat="44.30" lon="26.08">
		<name>15420 - BUKAREST</name>
	</wpt>
	<wpt lat="44.33" lon="26.06">
		<name>15421 - BUKAREST/OTOP</name>
	</wpt>
	<wpt lat="44.13" lon="28.39">
		<name>15480 - CONSTANTA</name>
	</wpt>
	<wpt lat="44.20" lon="28.26">
		<name>15481 - KOGALNICEANU</name>
	</wpt>
	<wpt lat="43.12" lon="27.55">
		<name>15552 - VARNA</name>
	</wpt>
	<wpt lat="42.39" lon="23.23">
		<name>15614 - SOFIA</name>
	</wpt>
	<wpt lat="42.08" lon="24.45">
		<name>15625 - PLOVDIV</name>
	</wpt>
	<wpt lat="42.29" lon="27.29">
		<name>15655 - BURGAS</name>
	</wpt>
	<wpt lat="46.46" lon="10.32">
		<name>16008 - S. VALENTINO</name>
	</wpt>
	<wpt lat="46.28" lon="11.20">
		<name>16020 - BOZEN</name>
	</wpt>
	<wpt lat="46.18" lon="11.47">
		<name>16021 - PASSO ROLLE</name>
	</wpt>
	<wpt lat="46.09" lon="11.02">
		<name>16022 - PAGANELLA</name>
	</wpt>
	<wpt lat="46.44" lon="12.13">
		<name>16033 - DOBBIACO</name>
	</wpt>
	<wpt lat="46.02" lon="12.36">
		<name>16036 - AVIANO</name>
	</wpt>
	<wpt lat="46.30" lon="13.35">
		<name>16040 - TARVISIO</name>
	</wpt>
	<wpt lat="45.59" lon="13.02">
		<name>16045 - UDINE/RIVOLTO</name>
	</wpt>
	<wpt lat="45.56" lon="7.42">
		<name>16052 - PIAN ROSA</name>
	</wpt>
	<wpt lat="45.44" lon="7.21">
		<name>16054 - AOSTA</name>
	</wpt>
	<wpt lat="45.13" lon="7.39">
		<name>16059 - TURIN</name>
	</wpt>
	<wpt lat="45.37" lon="8.44">
		<name>16066 - MILANO/MALPEN</name>
	</wpt>
	<wpt lat="45.52" lon="9.04">
		<name>16072 - MONTE BISBINO</name>
	</wpt>
	<wpt lat="45.40" lon="9.42">
		<name>16076 - BERGAMO</name>
	</wpt>
	<wpt lat="45.26" lon="9.17">
		<name>16080 - MAILAND</name>
	</wpt>
	<wpt lat="44.55" lon="9.44">
		<name>16084 - PIACENZA</name>
	</wpt>
	<wpt lat="40.50" lon="8.23">
		<name>16085 - PORTO TORRES</name>
	</wpt>
	<wpt lat="45.25" lon="10.17">
		<name>16088 - BRESCIA/GHEDI</name>
	</wpt>
	<wpt lat="45.23" lon="10.52">
		<name>16090 - VERONA</name>
	</wpt>
	<wpt lat="45.34" lon="11.31">
		<name>16094 - VICENZA</name>
	</wpt>
	<wpt lat="45.39" lon="12.11">
		<name>16099 - TREVISO-S. AN</name>
	</wpt>
	<wpt lat="45.30" lon="12.20">
		<name>16105 - VENEDIG</name>
	</wpt>
	<wpt lat="45.50" lon="13.28">
		<name>16108 - RONCHI DEI LE</name>
	</wpt>
	<wpt lat="45.39" lon="13.45">
		<name>16110 - TRIEST</name>
	</wpt>
	<wpt lat="44.32" lon="7.37">
		<name>16117 - CUNEO LEVALDI</name>
	</wpt>
	<wpt lat="44.25" lon="8.51">
		<name>16120 - GENUA</name>
	</wpt>
	<wpt lat="44.03" lon="8.07">
		<name>16122 - ALBENGA</name>
	</wpt>
	<wpt lat="44.05" lon="9.59">
		<name>16125 - SARZANA/LUNI</name>
	</wpt>
	<wpt lat="44.49" lon="10.17">
		<name>16130 - PARMA</name>
	</wpt>
	<wpt lat="44.01" lon="11.00">
		<name>16136 - PASSO PORRETT</name>
	</wpt>
	<wpt lat="44.50" lon="11.37">
		<name>16138 - FERRARA</name>
	</wpt>
	<wpt lat="44.32" lon="11.18">
		<name>16140 - BOLOGNA</name>
	</wpt>
	<wpt lat="44.27" lon="12.18">
		<name>16146 - PUNTA MARINA</name>
	</wpt>
	<wpt lat="44.12" lon="12.04">
		<name>16147 - FORLI</name>
	</wpt>
	<wpt lat="44.02" lon="12.37">
		<name>16149 - RIMINI</name>
	</wpt>
	<wpt lat="43.41" lon="10.23">
		<name>16158 - PISA-S.GIUSTO</name>
	</wpt>
	<wpt lat="43.24" lon="10.52">
		<name>16164 - VOLTERRA</name>
	</wpt>
	<wpt lat="43.48" lon="11.12">
		<name>16170 - FLORENZ</name>
	</wpt>
	<wpt lat="43.05" lon="12.30">
		<name>16181 - PERUGIA</name>
	</wpt>
	<wpt lat="43.37" lon="13.22">
		<name>16191 - FALCONARA</name>
	</wpt>
	<wpt lat="42.45" lon="11.04">
		<name>16206 - GROSSETO</name>
	</wpt>
	<wpt lat="42.26" lon="12.03">
		<name>16216 - VITERBO</name>
	</wpt>
	<wpt lat="42.28" lon="12.59">
		<name>16219 - MONTE TERMINI</name>
	</wpt>
	<wpt lat="42.22" lon="13.19">
		<name>16226 - L'AQUILA</name>
	</wpt>
	<wpt lat="42.26" lon="14.12">
		<name>16230 - PESCARA</name>
	</wpt>
	<wpt lat="41.47" lon="12.35">
		<name>16239 - ROMA-CIAMPINO</name>
	</wpt>
	<wpt lat="41.48" lon="12.14">
		<name>16242 - ROM</name>
	</wpt>
	<wpt lat="41.38" lon="13.18">
		<name>16244 - FROSINONE</name>
	</wpt>
	<wpt lat="41.39" lon="12.26">
		<name>16245 - PRATICA DI MA</name>
	</wpt>
	<wpt lat="41.34" lon="14.39">
		<name>16252 - CAMPOBASSO</name>
	</wpt>
	<wpt lat="41.32" lon="15.43">
		<name>16261 - AMENDOLA</name>
	</wpt>
	<wpt lat="41.08" lon="16.47">
		<name>16270 - BARI</name>
	</wpt>
	<wpt lat="40.55" lon="12.57">
		<name>16280 - PONZA</name>
	</wpt>
	<wpt lat="40.51" lon="14.18">
		<name>16289 - NEAPEL</name>
	</wpt>
	<wpt lat="40.37" lon="14.55">
		<name>16292 - PONTECAGNANO</name>
	</wpt>
	<wpt lat="40.33" lon="14.12">
		<name>16294 - CAPRI</name>
	</wpt>
	<wpt lat="40.38" lon="15.48">
		<name>16300 - POTENZA</name>
	</wpt>
	<wpt lat="40.39" lon="17.57">
		<name>16320 - BRINDISI</name>
	</wpt>
	<wpt lat="40.25" lon="16.53">
		<name>16325 - MARINA DI GIN</name>
	</wpt>
	<wpt lat="39.00" lon="17.04">
		<name>16350 - CROTONE</name>
	</wpt>
	<wpt lat="38.54" lon="16.15">
		<name>16362 - LAMEZIA TERME</name>
	</wpt>
	<wpt lat="38.11" lon="13.06">
		<name>16405 - PALERMO</name>
	</wpt>
	<wpt lat="38.12" lon="15.33">
		<name>16420 - MESSINA</name>
	</wpt>
	<wpt lat="38.04" lon="15.39">
		<name>16422 - REGGIO CALABR</name>
	</wpt>
	<wpt lat="37.55" lon="12.30">
		<name>16429 - TRAPANI/BIRGI</name>
	</wpt>
	<wpt lat="37.43" lon="13.26">
		<name>16434 - PRIZZI</name>
	</wpt>
	<wpt lat="37.05" lon="14.13">
		<name>16453 - GELA</name>
	</wpt>
	<wpt lat="37.28" lon="15.03">
		<name>16460 - CATANIA</name>
	</wpt>
	<wpt lat="37.04" lon="15.17">
		<name>16464 - SIRACUSA /SIC</name>
	</wpt>
	<wpt lat="40.38" lon="8.17">
		<name>16520 - ALGHERO / SAR</name>
	</wpt>
	<wpt lat="40.54" lon="9.31">
		<name>16531 - OLBIA/COSTA S</name>
	</wpt>
	<wpt lat="40.07" lon="9.15">
		<name>16538 - FONNI</name>
	</wpt>
	<wpt lat="39.08" lon="8.19">
		<name>16549 - CARLOFORTE /</name>
	</wpt>
	<wpt lat="39.56" lon="9.43">
		<name>16550 - CAPO BELLAVIS</name>
	</wpt>
	<wpt lat="39.15" lon="9.03">
		<name>16560 - CAGLIARI</name>
	</wpt>
	<wpt lat="35.51" lon="14.29">
		<name>16597 - MALTA</name>
	</wpt>
	<wpt lat="41.04" lon="23.34">
		<name>16606 - SERRAI</name>
	</wpt>
	<wpt lat="40.31" lon="22.58">
		<name>16622 - THESSALONIKI</name>
	</wpt>
	<wpt lat="40.59" lon="24.36">
		<name>16624 - CHRYSOUPOLI</name>
	</wpt>
	<wpt lat="40.51" lon="25.55">
		<name>16627 - ALEXANDROUPOL</name>
	</wpt>
	<wpt lat="40.18" lon="21.47">
		<name>16632 - KOZANI</name>
	</wpt>
	<wpt lat="39.37" lon="19.55">
		<name>16641 - KORFU</name>
	</wpt>
	<wpt lat="39.42" lon="20.49">
		<name>16642 - IOANNINA NATI</name>
	</wpt>
	<wpt lat="38.55" lon="20.46">
		<name>16643 - AKTIO AIRPORT</name>
	</wpt>
	<wpt lat="39.38" lon="22.25">
		<name>16648 - LARISSA</name>
	</wpt>
	<wpt lat="39.55" lon="25.14">
		<name>16650 - LIMNOS</name>
	</wpt>
	<wpt lat="37.26" lon="25.21">
		<name>16666 - MYKONOS</name>
	</wpt>
	<wpt lat="39.04" lon="26.36">
		<name>16667 - MYTILINI/AIRP</name>
	</wpt>
	<wpt lat="38.54" lon="22.24">
		<name>16675 - STYLIS LAMIA</name>
	</wpt>
	<wpt lat="37.55" lon="21.17">
		<name>16682 - ANDRAVIDA</name>
	</wpt>
	<wpt lat="38.58" lon="24.29">
		<name>16684 - SKYROS</name>
	</wpt>
	<wpt lat="38.07" lon="20.30">
		<name>16685 - KEFALHNIA</name>
	</wpt>
	<wpt lat="38.15" lon="21.44">
		<name>16689 - PATRAS</name>
	</wpt>
	<wpt lat="38.19" lon="23.32">
		<name>16699 - ANAGRA</name>
	</wpt>
	<wpt lat="38.20" lon="26.08">
		<name>16706 - CHIOS</name>
	</wpt>
	<wpt lat="37.32" lon="22.24">
		<name>16710 - TRIPOLIS/INTL</name>
	</wpt>
	<wpt lat="37.54" lon="23.44">
		<name>16716 - ATHEN</name>
	</wpt>
	<wpt lat="37.42" lon="26.55">
		<name>16723 - SAMOS</name>
	</wpt>
	<wpt lat="37.04" lon="22.01">
		<name>16726 - KALAMATA</name>
	</wpt>
	<wpt lat="37.06" lon="25.23">
		<name>16732 - NAXOS</name>
	</wpt>
	<wpt lat="37.25" lon="24.57">
		<name>16740 - SIROS</name>
	</wpt>
	<wpt lat="37.01" lon="25.08">
		<name>16741 - PAROS</name>
	</wpt>
	<wpt lat="36.47" lon="27.04">
		<name>16742 - KOS</name>
	</wpt>
	<wpt lat="36.17" lon="23.01">
		<name>16743 - KYTHIRA</name>
	</wpt>
	<wpt lat="36.25" lon="25.26">
		<name>16744 - SANTORINI</name>
	</wpt>
	<wpt lat="35.29" lon="24.07">
		<name>16746 - SOUDA/AIRPORT</name>
	</wpt>
	<wpt lat="36.24" lon="28.05">
		<name>16749 - RHODOS</name>
	</wpt>
	<wpt lat="35.20" lon="25.11">
		<name>16754 - HERAKLION</name>
	</wpt>
	<wpt lat="35.00" lon="24.45">
		<name>16759 - TYMBAKION</name>
	</wpt>
	<wpt lat="35.31" lon="27.15">
		<name>16765 - KARPATHOS</name>
	</wpt>
	<wpt lat="41.27" lon="31.48">
		<name>17022 - ZONGULDAK</name>
	</wpt>
	<wpt lat="41.59" lon="33.46">
		<name>17024 - INEBOLU</name>
	</wpt>
	<wpt lat="42.02" lon="35.10">
		<name>17026 - SINOP</name>
	</wpt>
	<wpt lat="41.17" lon="36.18">
		<name>17030 - SAMSUN</name>
	</wpt>
	<wpt lat="41.15" lon="36.34">
		<name>17031 - CARSAMBA/SAMS</name>
	</wpt>
	<wpt lat="41.00" lon="39.43">
		<name>17038 - TRABZON</name>
	</wpt>
	<wpt lat="41.40" lon="26.34">
		<name>17050 - EDIRNE</name>
	</wpt>
	<wpt lat="41.08" lon="27.55">
		<name>17054 - CORLU</name>
	</wpt>
	<wpt lat="40.59" lon="27.33">
		<name>17056 - TEKIRDAG</name>
	</wpt>
	<wpt lat="40.58" lon="28.49">
		<name>17060 - ISTANBUL</name>
	</wpt>
	<wpt lat="40.44" lon="31.36">
		<name>17070 - BOLU</name>
	</wpt>
	<wpt lat="39.45" lon="37.01">
		<name>17090 - SIVAS</name>
	</wpt>
	<wpt lat="39.55" lon="41.16">
		<name>17096 - ERZURUM</name>
	</wpt>
	<wpt lat="40.11" lon="29.04">
		<name>17116 - BURSA</name>
	</wpt>
	<wpt lat="40.15" lon="29.33">
		<name>17117 - BURSA/YENISEH</name>
	</wpt>
	<wpt lat="40.07" lon="32.59">
		<name>17128 - ANKARA</name>
	</wpt>
	<wpt lat="38.27" lon="43.19">
		<name>17170 - VAN</name>
	</wpt>
	<wpt lat="38.49" lon="35.26">
		<name>17195 - KAYSERI/ERKIL</name>
	</wpt>
	<wpt lat="38.16" lon="27.09">
		<name>17219 - IZMIR/ADNAN M</name>
	</wpt>
	<wpt lat="37.45" lon="30.33">
		<name>17240 - ISPARTA</name>
	</wpt>
	<wpt lat="37.58" lon="32.33">
		<name>17244 - KONYA</name>
	</wpt>
	<wpt lat="37.35" lon="36.55">
		<name>17255 - KAHRAMANMARES</name>
	</wpt>
	<wpt lat="37.05" lon="37.22">
		<name>17260 - GAZIANTEP</name>
	</wpt>
	<wpt lat="37.53" lon="40.12">
		<name>17280 - DIYARBAKIR</name>
	</wpt>
	<wpt lat="37.15" lon="27.40">
		<name>17289 - BODRUM/MILAS</name>
	</wpt>
	<wpt lat="37.02" lon="27.26">
		<name>17290 - BODRUM</name>
	</wpt>
	<wpt lat="36.42" lon="28.47">
		<name>17295 - MUGLA/DALAMAN</name>
	</wpt>
	<wpt lat="36.54" lon="30.48">
		<name>17300 - ANTALYA</name>
	</wpt>
	<wpt lat="37.00" lon="35.25">
		<name>17350 - ADANA</name>
	</wpt>
	<wpt lat="34.43" lon="32.29">
		<name>17600 - PAPHOS AIRPOR</name>
	</wpt>
	<wpt lat="34.35" lon="32.59">
		<name>17601 - AKROTIRI</name>
	</wpt>
	<wpt lat="34.53" lon="33.38">
		<name>17609 - LARNAKA</name>
	</wpt>
	<wpt lat="35.09" lon="33.17">
		<name>17610 - NICOSIA</name>
	</wpt>
	<wpt lat="79.33" lon="90.37">
		<name>20087 - OSTROV GOLOMJ</name>
	</wpt>
	<wpt lat="73.30" lon="80.24">
		<name>20674 - OSTROV DIKSON</name>
	</wpt>
	<wpt lat="71.35" lon="128.55">
		<name>21824 - TIKSI</name>
	</wpt>
	<wpt lat="68.58" lon="33.03">
		<name>22113 - MURMANSK</name>
	</wpt>
	<wpt lat="64.35" lon="40.30">
		<name>22550 - ARCHANGELSK</name>
	</wpt>
	<wpt lat="64.45" lon="47.39">
		<name>22583 - KOJNAS</name>
	</wpt>
	<wpt lat="61.43" lon="30.43">
		<name>22802 - SORTAVALA</name>
	</wpt>
	<wpt lat="61.49" lon="34.16">
		<name>22820 - PETROSK</name>
	</wpt>
	<wpt lat="69.24" lon="88.04">
		<name>23073 - NORILSK</name>
	</wpt>
	<wpt lat="69.24" lon="86.10">
		<name>23074 - DUDINKA</name>
	</wpt>
	<wpt lat="67.38" lon="53.01">
		<name>23205 - NAR?JAN-MAR</name>
	</wpt>
	<wpt lat="67.30" lon="63.58">
		<name>23226 - VORKUTA</name>
	</wpt>
	<wpt lat="67.28" lon="78.44">
		<name>23256 - TAZOVSKOE</name>
	</wpt>
	<wpt lat="66.32" lon="66.40">
		<name>23330 - SALEHARD</name>
	</wpt>
	<wpt lat="65.47" lon="87.56">
		<name>23472 - TURUHANSK</name>
	</wpt>
	<wpt lat="63.56" lon="65.03">
		<name>23631 - BEREZOVO</name>
	</wpt>
	<wpt lat="62.27" lon="66.03">
		<name>23734 - OKTJABRSKOE</name>
	</wpt>
	<wpt lat="61.40" lon="50.51">
		<name>23804 - SYKTYVKAR</name>
	</wpt>
	<wpt lat="61.21" lon="73.24">
		<name>23849 - SURGUT</name>
	</wpt>
	<wpt lat="68.30" lon="112.26">
		<name>24125 - OLENEK</name>
	</wpt>
	<wpt lat="67.33" lon="133.23">
		<name>24266 - VERHOJANSK</name>
	</wpt>
	<wpt lat="63.15" lon="143.09">
		<name>24688 - OJMJAKON</name>
	</wpt>
	<wpt lat="62.01" lon="129.43">
		<name>24959 - JAKUTSK</name>
	</wpt>
	<wpt lat="59.33" lon="150.47">
		<name>25913 - MAGADAN</name>
	</wpt>
	<wpt lat="59.25" lon="24.48">
		<name>26038 - TALLIN</name>
	</wpt>
	<wpt lat="59.23" lon="28.07">
		<name>26058 - NARVA</name>
	</wpt>
	<wpt lat="59.58" lon="30.18">
		<name>26063 - ST.PETERSBURG</name>
	</wpt>
	<wpt lat="58.55" lon="22.04">
		<name>26115 - RISTNA</name>
	</wpt>
	<wpt lat="58.45" lon="26.25">
		<name>26144 - LOGEVA</name>
	</wpt>
	<wpt lat="58.13" lon="22.31">
		<name>26215 - ARENSBURG</name>
	</wpt>
	<wpt lat="58.25" lon="24.28">
		<name>26231 - PARNU-SAUGA</name>
	</wpt>
	<wpt lat="58.18" lon="26.44">
		<name>26242 - TARTU</name>
	</wpt>
	<wpt lat="57.49" lon="28.20">
		<name>26258 - PSKOV</name>
	</wpt>
	<wpt lat="57.54" lon="34.03">
		<name>26298 - BOLOGOE</name>
	</wpt>
	<wpt lat="57.24" lon="21.32">
		<name>26314 - VENTSPILS</name>
	</wpt>
	<wpt lat="57.26" lon="27.02">
		<name>26346 - ALUKSNE</name>
	</wpt>
	<wpt lat="56.29" lon="21.01">
		<name>26406 - LIEPAJA</name>
	</wpt>
	<wpt lat="56.41" lon="22.30">
		<name>26416 - SALDUS</name>
	</wpt>
	<wpt lat="56.58" lon="24.04">
		<name>26422 - RIGA</name>
	</wpt>
	<wpt lat="56.37" lon="23.19">
		<name>26424 - DOBELE</name>
	</wpt>
	<wpt lat="56.33" lon="23.58">
		<name>26425 - JELGAVA</name>
	</wpt>
	<wpt lat="56.25" lon="24.11">
		<name>26429 - BAUSKA</name>
	</wpt>
	<wpt lat="55.58" lon="21.06">
		<name>26502 - PALANGA</name>
	</wpt>
	<wpt lat="55.42" lon="21.09">
		<name>26509 - KLAIPEDA</name>
	</wpt>
	<wpt lat="55.56" lon="23.19">
		<name>26524 - SIAULIAI</name>
	</wpt>
	<wpt lat="55.44" lon="24.25">
		<name>26529 - PANEVEZYS</name>
	</wpt>
	<wpt lat="55.52" lon="26.37">
		<name>26544 - DAUGAVPILS</name>
	</wpt>
	<wpt lat="55.49" lon="27.56">
		<name>26554 - VERKHNEDVINSK</name>
	</wpt>
	<wpt lat="55.18" lon="21.00">
		<name>26603 - NIDA</name>
	</wpt>
	<wpt lat="54.53" lon="23.50">
		<name>26629 - KAUNAS POCIUN</name>
	</wpt>
	<wpt lat="54.58" lon="24.05">
		<name>26630 - KAUNAS</name>
	</wpt>
	<wpt lat="55.08" lon="26.10">
		<name>26636 - SVECIONYS</name>
	</wpt>